,OPIS Truckstop ID,Truckstop Name,Address,City,State,Rack ID,Retail Price,Latitude,Longitude
0,7,WOODSHED OF BIG CABIN,"I-44, EXIT 283 & US-69",Big Cabin,OK,307,3.00733333,36.561270,-95.217800
1,9,KWIK TRIP #796,"I-94, EXIT 143 & US-12 & SR-21",Tomah,WI,420,3.28733333,44.028320,-90.387240
2,20,PILOT TRAVEL CENTER #1243,"I-8, EXIT 119 & SR-85",Gila Bend,AZ,930,3.899,32.947210,-112.717680
3,20,PILOT #1243,"I-8, EXIT 119 & SR-85",Gila Bend,AZ,930,3.899,32.947210,-112.717680
4,28,LITTLEFIELD EXPRESS #2,"I-540, EXIT 12 & US-71",Fort Smith,AR,645,3.399,35.379020,-94.421190
5,35,ACI TRUCK STOP,US-46,Columbia,NJ,90,3.079,40.890080,-75.064230
6,36,SHENANDOAH TRUCK CENTER,"I-81, EXIT 273 & SR-703/SR-292",Mount Jackson,VA,60,2.899,38.760970,-78.631300
7,44,CIRCLE K #2612042,"I-35,  EXIT 271",Jarrell,TX,595,2.919,30.804500,-97.616140
8,46,PETRO STOPPING CENTER #348,"I-85,  EXIT 22 & CR-138",Shorter,AL,720,3.154,32.375720,-85.849510
9,49,TA SEYMOUR TRAVEL CENTER,"I-65, EXIT 50 & US-50 & US-31",Seymour,IN,415,3.959,38.882710,-85.818710
10,50,TA COUNCIL BLUFFS TRAVEL CENTER,"I-29 & I-80, EXIT 3",Council Bluffs,IA,319,3.72566666,41.232080,-95.849050
11,56,TOPS TRUCK STOP,"I-94, EXIT 182 & US-83",Sterling,ND,390,3.51566666,46.808320,-100.289200
12,75,Good 2 Go #709,US-50,Montrose,CO,810,3.424,38.490740,-107.876060
13,77,OASIS TRAVEL PLAZA,US-13,Laurel,DE,243,3.229,38.550690,-75.556210
14,79,DELAWARE TRUCK PLAZA,US-13 & US-40,New Castle                              ,DE,243,3.249,39.684260,-75.587090
15,81,One9 #89,"I-75, EXIT 224",Ellenton,FL,225,3.439,27.530170,-82.508060
16,85,DOWNIEVILLE FUEL STOP,"I-70, EXIT 234",Dumont,CO,800,3.459,39.764370,-105.593050
17,91,MOLLYS FOOD & FUEL,"I-20 & ST 22, EXIT 55",Crawfordville                           ,GA,135,3.499,33.554050,-82.893640
18,105,TA SAGINAW I 75 TRAVEL CENTER,"I-75, EXIT 144-B",Bridgeport,MI,260,3.269,43.350740,-83.864390
19,105,TA SAGINAW I 75 TRAVEL CENTER,"I-75, EXIT 144-B",Bridgeport,MI,260,3.339,43.350740,-83.864390
20,105,TA SAGINAW I 75 TRAVEL CENTER,"I-75, EXIT 144-B",Bridgeport,MI,260,3.429,43.350740,-83.864390
21,105,TA SAGINAW I 75 TRAVEL CENTER,"I-75, EXIT 144-B",Bridgeport,MI,260,3.289,43.350740,-83.864390
22,105,TA SAGINAW I 75 TRAVEL CENTER,"I-75, EXIT 144-B",Bridgeport,MI,260,3.399,43.350740,-83.864390
23,105,TA SAGINAW I 75 TRAVEL CENTER,"I-75, EXIT 144-B",Bridgeport,MI,260,3.299,43.350740,-83.864390
24,118,Lupton Truck Stop #567,"I-40, EXIT 359",Lupton,AZ,580,3.299,35.353590,-109.053510
25,121,PETRO STOPPING CENTER #306,"I-10, EXIT 200",Eloy,AZ,930,3.474,32.331900,-109.518550
26,127,CIRCLE K #4700095,US-41,Henderson,KY,340,3.609,37.875190,-87.567930
27,128,THE EFFINGHAM CHROME SHOP,"I-57 & I-70, EXIT 159",Effingham                               ,IL,510,3.399,39.116630,-88.569680
28,128,THE EFFINGHAM CHROME SHOP,"I-57 & I-70, EXIT 159",Effingham                               ,IL,510,3.349,39.116630,-88.569680
29,128,THE EFFINGHAM CHROME SHOP,"I-57 & I-70, EXIT 159",Effingham                               ,IL,510,3.549,39.116630,-88.569680
30,135,LOVES TRAVEL STOP #766,"I-80, EXIT 27",Atkinson,IL,290,3.589,41.407750,-90.011290
31,135,LOVES TRAVEL STOP #766,"I-80, EXIT 27",Atkinson,IL,290,3.389,41.407750,-90.011290
32,135,LOVES TRAVEL STOP #766,"I-80, EXIT 27",Atkinson,IL,290,3.449,41.407750,-90.011290
33,147,SPEEDWAY #8039,"I-69, EXIT 234 & SR-67",Daleville,IN,375,3.624,40.108710,-85.568710
34,149,RAYS TRUCK WASH,"I-69, EXIT 309 & US-30",Fort Wayne                              ,IN,370,3.59233333,41.096800,-85.213090
35,151,CUBBYS #2101,"I-80, EXIT 211 & SR-47",Gothenburg,NE,475,3.13233333,40.918170,-100.166760
36,159,PILOT TRAVEL CENTER #87,"I-10, EXIT 343",Jacksonville,FL,75,3.859,30.334950,-81.400310
37,159,PILOT TRAVEL CENTERS #87,"I-10, EXIT 343",Jacksonville,FL,75,3.859,30.334950,-81.400310
38,160,PILOT TRAVEL CENTERS #79,"I-12, EXIT 10 AT MILE 10",Denham Springs                          ,LA,600,3.23233333,30.456300,-90.951770
39,164,FLYING J TRAVEL PLAZA #650,"I-94, EXIT 15 B",Lake Station                            ,IN,365,3.809,41.583090,-87.239910
40,167,FLYING J TRAVEL PLAZA #653,RT 2 & I-65 EXIT 240,Hebron,IN,365,3.43566666,41.317160,-87.199950
41,174,Hop-In Food Stores,US-59 & SR-224,Nacogdoches                             ,TX,618,2.859,31.600130,-94.685950
42,184,SAPP BROS TRAVEL CENTER,"I-29 & I-80, EXIT 1B",Council Bluffs,IA,486,3.719,41.232080,-95.849050
43,186,COFFEE CUP FUEL STOP #5,"I-90, EXIT 154 & US-16",Moorcroft                               ,WY,822,3.239,44.263530,-104.952820
44,187,DUDLEYS CORNER,"I-35, EXIT 165 & SR-3",Latimer,IA,433,3.23233333,42.745430,-93.399910
45,191,KUM & GO #0302,"I-35, EXIT 193 & SR 106",Clear Lake,IA,433,3.18566666,43.150290,-93.355940
46,192,Brew Stuart Truckstop,"I-80, EXIT 93",Stuart                                  ,IA,320,3.099,41.492900,-94.322390
47,195,PETRO STOPPING CENTER #311,"I-40 & I-55, EXIT 280",West Memphis,AR,435,3.36733333,35.168560,-90.186890
48,198,SINCLAIR,"I-76, EXIT 115",Atwood,CO,800,3.299,40.539830,-103.224640
49,199,PETRO STOPPING CENTER #366,"I-70, EXIT 252",Salina,KS,523,3.80566666,38.875990,-97.616950
50,203,PILOT TRAVEL CENTER #31,"I-80/94, EXIT 2",Highland,IN,365,3.829,41.433460,-73.915900
51,203,PILOT TRAVEL CENTERS #31,"I-80/94, EXIT 2",Highland,IN,365,3.799,41.433460,-73.915900
52,207,MARATHON,SR-32,Sardinia                                ,OH,300,3.56566666,39.004530,-83.782790
53,216,CIRCLE K #2721593,"I-10, EXIT 50",Ocean Springs,MS,715,3.41566666,30.454020,-88.846460
54,217,NORTH 9TH 24/7,"I-70, EXIT 252",Salina,KS,523,3.02566666,38.875990,-97.616950
55,231,DERBY CITYS TRUCK PLAZA,"I-75, EXIT 62 & US-25",Mount Vernon,KY,410,2.999,37.352470,-84.339300
56,235,PILOT TRAVEL CENTERS #92,"I-75, EXIT 358",Ocala,FL,225,3.359,29.263200,-82.191630
57,235,PILOT TRAVEL CENTER #92,"I-75, EXIT 358",Ocala,FL,225,3.41233333,29.263200,-82.191630
58,240,LA 1 SOUTH TRUCKSTOP,"I-10, EXIT 153 & SR-1",Port Allen,LA,600,3.039,30.451760,-91.210400
59,243,SAVE,US-41 & SR-10,Lake Village,IN,399,3.179,41.144390,-87.389960
60,244,BIG D TRUCK TRAVEL PLAZA,"I-10, EXIT 92 & SR-95",Duson,LA,725,2.98233333,30.241060,-92.176260
61,248,Mardi Gras Truck Stop,"I-10, EXIT 236",New Orleans,LA,725,3.729,30.112650,-89.890790
62,250,GOLDEN OX TRUCK STOP,"I-70/US-40, EXIT 159 & US-183",Hays,KS,523,3.499,38.913420,-99.357950
63,253,LOVES TRAVEL STOP #450,"I-40, EXIT 280 & I-55, EXIT 4",West Memphis,AR,435,3.32566666,35.139100,-90.099370
64,256,BFS FOODS #66,"I-68/US-40, EXIT 22 & US-219",Grantsville                             ,MD,165,3.899,40.569280,-112.308640
65,257,PILOT TRAVEL CENTER #917- TOWN PUMP,I-15 & 31ST STREET EXIT 277,Great Falls                             ,MT,815,3.63566666,47.508040,-111.253810
66,263,CASEYS #3956,I-94 EXIT 16,Bridgman,MI,465,3.559,41.926390,-86.570200
67,267,CORNER MARKET #117,SR-154 & SR-129,Dodge City,KS,357,3.399,37.748550,-99.979060
68,269,PILOT TRAVEL CENTERS #24,"I-75, EXIT 15",Monroe                                  ,MI,325,3.299,41.922890,-83.360920
69,269,PILOT TRAVEL CENTERS #24,"I-75, EXIT 15",Monroe                                  ,MI,325,3.249,41.922890,-83.360920
70,269,PILOT TRAVEL CENTERS #24,"I-75, EXIT 15",Monroe                                  ,MI,325,3.439,41.922890,-83.360920
71,269,PILOT TRAVEL CENTERS #24,"I-75, EXIT 15",Monroe                                  ,MI,325,3.349,41.922890,-83.360920
72,269,PILOT TRAVEL CENTERS #24,"I-75, EXIT 15",Monroe                                  ,MI,325,3.559,41.922890,-83.360920
73,278,CARLISLE PLAZA,US-41,Carlisle,IN,510,3.499,38.970140,-87.406540
74,281,CIRCLE K #4700065,"I-65, EXIT 76 & US-31",Taylorsville,IN,375,3.399,31.894910,-89.349570
75,289,LOVES TRAVEL STOP #173,"I-70, MM 209",Lawrence,KS,553,3.229,39.008800,-95.158440
76,292,PETES #56,US-169 & CR-5000,Cherryvale,KS,307,3.23233333,39.980370,-105.212850
77,293,LOVES TRAVEL STOP #176,"I-35, MILE MARKER 97",Matfield Green,KS,336,3.25566666,38.182950,-96.459900
78,304,FL Roberts,"I-91, EXIT 4",Springfield,MA,100,3.599,42.156740,-72.650650
79,309,QUIKTRIP #231,"I-635, EXIT 3",Kansas City,KS,400,3.199,39.094110,-94.680740
80,323,SAPP BROS TRAVEL CENTER,"I-80, EXIT 126",Ogallala,NE,475,3.46566666,41.115070,-101.720480
81,326,FLYING J TRAVEL PLAZA #748,"I-15, EXIT 357",Willard                                 ,UT,835,3.749,41.415920,-112.050620
82,341,TA JACKSONVILLE SOUTH TRAVEL CENTER,"I-95, EXIT 329",Saint Johns,FL,75,3.469,30.075210,-81.498800
83,347,7-ELEVEN #40514,I-90/80-IN TOLL RD MM 22E,Portage,IN,365,3.99066666,41.580190,-87.173220
84,358,TA BINGHAMTON TRAVELCENTER,"I-81N, EXIT 2W & I-81S, EXIT 3",Binghamton,NY,32,3.769,42.169400,-75.896420
85,358,TA BINGHAMTON TRAVELCENTER,"I-81N, EXIT 2W & I-81S, EXIT 3",Binghamton,NY,32,3.689,42.169400,-75.896420
86,358,TA BINGHAMTON TRAVELCENTER,"I-81N, EXIT 2W & I-81S, EXIT 3",Binghamton,NY,32,3.699,42.169400,-75.896420
87,358,TA BINGHAMTON TRAVELCENTER,"I-81N, EXIT 2W & I-81S, EXIT 3",Binghamton,NY,32,3.739,42.169400,-75.896420
88,361,CIRCLE K #2726293,"I-295, EXIT 25",Jacksonville,FL,75,3.31566666,30.367420,-81.760850
89,368,WILTON TRAVEL PLAZA,"I-87, EXIT 16",Gansevoort                              ,NY,12,3.749,43.166530,-73.714160
90,368,WILTON TRAVEL PLAZA,"I-87, EXIT 16",Gansevoort                              ,NY,12,3.799,43.166530,-73.714160
91,372,GAS DEPOT,"I-94, EXIT 5",Hammond,IN,365,3.999,41.571340,-87.438960
92,381,7-Eleven #41830,US-69 & US-135,Jacksonville,TX,630,2.91566666,32.127610,-95.305060
93,387,Circle K #2709664,"I-8, EXIT 12",Yuma,AZ,930,3.489,32.670380,-114.449360
94,388,Pilot Travel Centers #14,"I-71, EXIT 131",Sunbury,OH,315,3.719,40.269380,-82.927280
95,391,PILOT TRAVEL CENTERS #13,"I-71, EXIT 209",Seville,OH,305,3.699,41.036060,-81.880400
96,403,TRUCKOMAT OF HEBRON,"I-70, EXIT 126 & SR-37",Hebron,OH,315,3.429,39.942460,-82.539810
97,407,FUEL MART #641,"I-80 & I-280, EXIT 71",Perrysburg                              ,OH,550,3.499,41.523470,-83.457010
98,421,PETRO STOPPING CENTER #316,"I-40 & I-35, EXIT 127",Oklahoma City,OK,483,3.30233333,35.338900,-97.492330
99,424,E EXPRESS,"I-40, EXIT 166",Choctaw,OK,483,2.899,35.390440,-97.259280
100,425,Neighbors Express,"I-16, EXIT 51",Dublin                                  ,GA,85,3.299,32.488190,-82.938720
101,442,WESTERN COOP,US-385 & SR-2,Alliance,NE,795,3.324,42.096670,-102.898370
102,455,MR FUEL #753,"I-95, EXIT 104 & SR-207",Ruther Glen,VA,180,3.26566666,37.938370,-77.472700
103,456,THE COUNTRY OASIS,US-24,Woodburn                                ,IN,370,3.399,41.138140,-84.867020
104,458,HAPPY HILLS GAS & COFFEE,I-29 EXIT 110,Rock Port,MO,400,3.399,40.403300,-95.553110
105,460,TRUCK STOP 44,I-20 EXIT 44,Gilbert,SC,135,3.079,33.868330,-81.386970
106,461,SPINX #271,"I-26, EXIT 145 & US-601",Orangeburg,SC,42,3.26233333,33.486850,-80.862530
107,469,LOAF N JUG #750010,US-160 & SR-17,Alamosa,CO,803,3.259,37.577430,-105.861760
108,474,KEWANEE 1 STOP,"I-20, EXIT 169 & US-80",Toomsuba,MS,705,3.299,32.423570,-88.453460
109,478,GASTRAK OF PEMBINA,"I-29, EXIT 215",Pembina                                 ,ND,355,3.299,48.967400,-97.258330
110,483,ALLSUPS #2387,US-54/SR-136/SR-3 & US-64,Guymon,OK,585,2.97566666,36.678740,-101.481580
111,486,LA NORIA CONV STORES,"I-35 N, EXIT 4",Laredo                                  ,TX,693,3.299,27.564660,-99.502630
112,489,EDDIES CORNER,US-87 & US-191,Moore,MT,815,3.749,46.983060,-109.745300
113,491,One9 #403,"I-75, EXIT 117",Heiskell,TN,405,2.999,36.103940,-84.022570
114,496,PILOT TRAVEL CENTERS #270,"I-40 & I-75, EXIT 374",Knoxville,TN,405,3.439,35.904940,-84.149630
115,509,LOVES TRAVEL STOPS #256,"I-10, EXIT 140B",Van Horn,TX,640,3.649,31.050380,-104.831300
116,509,LOVES TRAVEL STOP #256,"I-10, EXIT 140B",Van Horn,TX,640,3.649,31.050380,-104.831300
117,522,GO MART FOOD STORE #57,"I-70 & ST-285, EXIT 186",Lore City                               ,OH,430,3.179,39.983720,-81.459300
118,523,CIRCLE K #2723322,"I-985, EXIT 20 & SR-60",Gainesville,GA,18,3.26566666,34.285470,-83.826100
119,525,FASTBREAK,US-45 ALT,West Point,MS,705,3.059,33.594290,-88.659080
120,546,PLAZA 30,US-30,Wanatah,IN,365,3.499,41.433930,-86.891030
121,557,SAPP BROS TRAVEL CENTER,"I-80, EXIT 73",Peru,IL,290,3.389,41.364700,-89.156640
122,557,SAPP BROS TRAVEL CENTER,"I-80, EXIT 73",Peru,IL,290,3.589,41.364700,-89.156640
123,557,SAPP BROS TRAVEL CENTER,"I-80, EXIT 73",Peru,IL,290,3.449,41.364700,-89.156640
124,557,SAPP BROS TRAVEL CENTER,"I-80, EXIT 73",Peru,IL,290,3.289,41.364700,-89.156640
125,559,SHELL MORGAN ROAD TRUCK STOP,"I-40, EXIT 142",Maumelle,AR,695,3.20733333,34.882850,-92.376610
126,566,TA GARY TRAVEL CENTER,"I-80/I-94, EXIT 6",Gary,IN,365,3.83066666,41.569800,-87.409810
127,567,TA ELOY TRAVEL CENTER,"I-10 & I-8, EXIT 203",Eloy,AZ,930,3.459,32.779360,-111.623240
128,572,PILOT TRAVEL CENTER #881,"I-69, EXIT 309A",Fort Wayne                              ,IN,370,3.899,41.118980,-85.189910
129,572,PILOT TRAVEL CENTERS #881,"I-69, EXIT 309A",Fort Wayne                              ,IN,370,3.879,41.118980,-85.189910
130,576,PETRO STOPPING CENTER #343,"I-10, EXIT 76",Egan,LA,600,3.624,30.231880,-92.534660
131,578,LOVES TRAVEL STOP #449,"I-84, EXIT 17",Troutdale,OR,935,3.779,45.544130,-122.405070
132,579,FLYING J TRAVEL PLAZA #764,"I-80, EXIT 104 & US-191",Rock Springs,WY,835,3.67066666,41.589030,-109.225270
133,586,AMERISTAR TRAVEL PLAZA #120,"I-82, EXIT 80",Prosser,WA,925,4.399,46.224170,-119.796700
134,586,AMERISTAR TRAVEL PLAZA #120,"I-82, EXIT 80",Prosser,WA,925,4.559,46.224170,-119.796700
135,588,TA TUSCALOOSA TRAVEL CENTER,"I-20/I-59, EXIT 77",Cottondale,AL,615,2.964,33.172810,-87.452450
136,591,TA Concordia Travel Plaza,"I-70, EXIT 58 & SR-23",Concordia,MO,400,3.22566666,23.287350,-106.067880
137,599,Sapp Bros Travel Center,"I-80, EXIT 59 & SR-17J",Sidney,NE,475,3.50066666,41.112920,-102.955170
138,602,JIFFY MART EXIT 18 TRUCK STOP,"I-89/SR-120, EXIT 18 & SR-120",Lebanon,NH,12,3.599,43.654790,-72.244080
139,614,TA MAYBROOK TRAVEL CENTER,"I-84, EXIT 5",Montgomery,NY,120,4.359,41.521900,-74.107080
140,628,KWIK FILL #227,"I-90,  EXIT 218",Geneva,OH,305,3.15233333,41.769140,-80.950320
141,629,FLYING J #850,TCH-16,Edmonton,AB,80,4.39948962,53.546240,-113.490370
142,629,FLYING J #850,TCH-16,Edmonton,AB,80,4.39625375,53.546240,-113.490370
143,629,FLYING J #850,TCH-16,Edmonton,AB,80,4.40695023,53.546240,-113.490370
144,629,FLYING J #850,TCH-16,Edmonton,AB,80,4.40630048,53.546240,-113.490370
145,629,FLYING J #850,TCH-16,Edmonton,AB,80,4.39722401,53.546240,-113.490370
146,629,FLYING J #850,TCH-16,Edmonton,AB,80,4.3981947,53.546240,-113.490370
147,636,UNION 76,"I-5, EXIT 233 E",Albany,OR,935,3.379,44.628790,-123.061870
148,651,ONE9 #1366,"I-40, EXIT 126 & US-641",Holladay,TN,460,2.98566666,35.839350,-88.087900
149,652,TA KNOXVILLE EAST TRAVEL CENTER,"I-40 & I-75, EXIT 374",Knoxville,TN,405,3.42566666,35.904940,-84.149630
150,659,FLYING J #869,HWY 2 SOUTH,Nanton,AB,50,4.39948962,50.348360,-113.770970
151,659,FLYING J #869,HWY 2 SOUTH,Nanton,AB,50,4.59317483,50.348360,-113.770970
152,659,FLYING J #869,HWY 2 SOUTH,Nanton,AB,50,4.59114784,50.348360,-113.770970
153,659,FLYING J #869,HWY 2 SOUTH,Nanton,AB,50,4.60163996,50.348360,-113.770970
154,659,FLYING J #869,HWY 2 SOUTH,Nanton,AB,50,4.59216111,50.348360,-113.770970
155,659,FLYING J #869,HWY 2 SOUTH,Nanton,AB,50,4.60231851,50.348360,-113.770970
156,669,PETRO STOPPING CENTER #350,"I-10,  EXIT 4",Canutillo,TX,640,3.499,31.910740,-106.583360
157,672,CROWN POINT TRUCK STOP,"I-295/US-130,EXIT 22",Thorofare,NJ,150,3.549,39.844970,-75.184220
158,680,TA EXPRESS SUMMIT,"I-29, EXIT 207 & US-12",Summit,SD,566,3.20566666,45.310780,-97.051490
159,684,7-ELEVEN #35101,"I-86/SR-17, EXIT 16",Randolph,NY,38,4.499,42.160840,-78.999240
160,689,FLYING EAGLE,"I-235, EXIT 4",Wichita,KS,570,3.499,37.630250,-97.386590
161,692,BP,US-63,Ottumwa,IA,489,3.399,41.015270,-92.423310
162,739,Arco #364420,US-23,Greenup,KY,255,3.649,38.601070,-82.855300
163,748,QUIKTRIP #4231,US-85,Evans,CO,800,3.17233333,40.377380,-104.693540
164,769,AYERCO #26,US-61/US-136,Alexandria,MO,345,3.01566666,40.364320,-91.469130
165,815,Kwik Trip #1508,"US-18/SR-151, EXIT 58",Barneveld,WI,420,3.489,43.010100,-89.897380
166,855,SPEEDWAY #7459,US-41 & SR-137,North Chicago,IL,293,3.379,42.308620,-87.877410
167,855,SPEEDWAY #7459,US-41 & SR-137,North Chicago,IL,293,3.499,42.308620,-87.877410
168,855,SPEEDWAY #7459,US-41 & SR-137,North Chicago,IL,293,3.289,42.308620,-87.877410
169,863,Ocean Fuel,US-301/SR-73,Sylvania,GA,195,3.499,32.749760,-81.638220
170,906,PILOT TRAVEL CENTERS #429,"I-40, EXIT 280",West Memphis,AR,435,3.499,35.153160,-90.082730
171,906,PILOT TRAVEL CENTER #429,"I-40, EXIT 280",West Memphis,AR,435,3.291,35.153160,-90.082730
172,908,CIRCLE K #2704888,"I-65, EXIT 246 & SR-119",Pelham,AL,615,3.46566666,33.332650,-86.788750
173,912,PETRO STOPPING CENTER #319,"I-20/59,  EXIT 100",Mc Calla,AL,615,3.12566666,33.276250,-87.099260
174,936,CASEYS #4254,"I-40, EXIT 129",Conway,AR,695,3.03233333,35.069900,-92.417470
175,970,CIRCLE K #2702885,"I-17/SR-60, EXIT 199A",Phoenix,AZ,930,3.39233333,33.437760,-112.108090
176,977,PILOT TRAVEL CENTER #328,"I-10, EXIT 17",Quartzsite,AZ,930,3.959,33.666620,-114.217480
177,977,PILOT TRAVEL CENTERS #328,"I-10, EXIT 17",Quartzsite,AZ,930,3.959,33.666620,-114.217480
178,981,STINKER #85,"I-15, EXIT 93",Blackfoot,ID,825,3.53233333,43.195580,-112.366280
179,982,CIRCLE K #2701948,"I-8, EXIT 7 & SR-195",Yuma,AZ,900,3.56566666,32.702830,-114.610110
180,1028,FOUR STATES TRUCK STOP,"I-495, EXIT 4 & SR-9",New Castle,DE,243,3.449,39.721420,-75.538720
181,1028,FOUR STATES TRUCK STOP,"I-495, EXIT 4 & SR-9",New Castle,DE,243,3.399,39.721420,-75.538720
182,1042,Union 76,US-441 & SR-100A,Lake City,FL,75,3.56233333,30.189340,-82.631420
183,1043,ONE9 #1401,I-75 EXIT 414  & US-41,Lake City,FL,75,3.259,30.184820,-82.639440
184,1043,SHELL DBA ONE9 #1401,I-75 EXIT 414  & US-41,Lake City,FL,75,3.244,30.184820,-82.639440
185,1047,TA MARIANNA TRAVEL CENTER,"I-10/SR-8, EXIT 142 & SR-71",Marianna,FL,20,3.60733333,30.722660,-85.192060
186,1075,PILOT TRAVEL CENTER #68,"I-16 /SR-404, EXIT 51 & US-441",Dublin,GA,85,3.43233333,32.543750,-82.906550
187,1075,PILOT TRAVEL CENTERS #68,"I-16 /SR-404, EXIT 51 & US-441",Dublin,GA,85,3.399,32.543750,-82.906550
188,1106,CIRCLE K #2705367,"I-20, EXIT 172",Thomson,GA,16,3.399,33.510750,-82.506820
189,1112,BC AMPRIDE TRUCK PLAZA,US-59/SR-141,Denison,IA,527,3.399,42.016660,-95.366230
190,1115,KWIK STAR #704,SR-57/SR-14,Parkersburg,IA,565,3.58233333,42.570450,-92.789470
191,1121,TRAVELERS OASIS,"I-84, EXIT 182",Eden,ID,787,3.799,42.578280,-114.301180
192,1128,TA CHICAGO NORTH TRAVEL CENTER,"I-94/US-41, EXIT 1",Wadsworth,IL,444,3.819,42.481880,-87.947640
193,1128,TA CHICAGO NORTH TRAVEL CENTER,"I-94/US-41, EXIT 1",Wadsworth,IL,444,3.879,42.481880,-87.947640
194,1128,TA CHICAGO NORTH TRAVEL CENTER,"I-94/US-41, EXIT 1",Wadsworth,IL,444,3.779,42.481880,-87.947640
195,1128,TA CHICAGO NORTH TRAVEL CENTER,"I-94/US-41, EXIT 1",Wadsworth,IL,444,3.769,42.481880,-87.947640
196,1132,SPEEDWAY #7423,"I-57, EXIT 83",Ina,IL,293,3.249,38.150610,-88.913140
197,1136,PILOT TRAVEL CENTER #171,"I-74, EXIT 206",Oakwood,IL,280,3.399,40.126530,-87.783420
198,1136,PILOT TRAVEL CENTER #171,"I-74, EXIT 206",Oakwood,IL,280,3.499,40.126530,-87.783420
199,1136,PILOT TRAVEL CENTER #171,"I-74, EXIT 206",Oakwood,IL,280,3.599,40.126530,-87.783420
200,1140,CIRCLE K #4701398,"I-55, EXIT 82 & SR-104",Divernon,IL,280,3.499,39.589800,-89.652340
201,1149,PILOT TRAVEL CENTER #30,"I-70, EXIT 96",Greenfield,IN,375,3.959,39.819490,-85.907250
202,1149,PILOT TRAVEL CENTERS #30,"I-70, EXIT 96",Greenfield,IN,375,3.959,39.819490,-85.907250
203,1151,SPEEDWAY #8061,"I-70, EXIT 115 & SR-109",Knightstown,IN,375,3.759,39.796190,-85.532130
204,1154,CIRCLE K #2704691,SR-71 & CR-214,Cedar Creek,TX,595,3.199,30.110190,-97.424860
205,1156,CIRCLE K #4700028,"I-74/US-421, EXIT 116 & SR-44",Shelbyville,IN,375,3.599,39.522940,-85.774250
206,1157,One9 #297,"I-70, EXIT 11 & SR-46",Terre Haute                             ,IN,510,3.43566666,39.430990,-87.409550
207,1158,PILOT TRAVEL CENTERS #36,US-30  & SR-49,Valparaiso,IN,365,3.869,41.430190,-87.027070
208,1158,PILOT TRAVEL CENTER #36,US-30  & SR-49,Valparaiso,IN,365,3.859,41.430190,-87.027070
209,1163,SHORT STOP #13,US-54,Emporia,KS,553,2.839,38.405600,-96.180160
210,1176,PILOT TRAVEL CENTERS #353,"I-75, EXIT 129",Georgetown,KY,410,3.20566666,38.272160,-84.555990
211,1179,PILOT TRAVEL CENTERS #399,"I-65, EXIT 105",Lebanon Junction,KY,415,3.609,37.827360,-85.721220
212,1196,SOUTHERN BELLE TRUCK STOP,US-61 & SR-964,Saint Francisville,LA,725,3.384,30.748850,-91.293520
213,1199,ALLTOWN MARKETS #306,"I-190, EXIT 7",Leominster,MA,178,3.68233333,42.523280,-71.747000
214,1202,ONE9 #290,"I-95, EXIT 93 & SR-222",Perryville,MD,22,3.599,39.590500,-76.061770
215,1204,PETRO STOPPING CENTER #321,"I-70 & I-57, EXIT 159",Effingham,IL,574,3.549,39.116630,-88.569680
216,1204,PETRO STOPPING CENTER #321,"I-70 & I-57, EXIT 159",Effingham,IL,574,3.349,39.116630,-88.569680
217,1204,PETRO STOPPING CENTER #321,"I-70 & I-57, EXIT 159",Effingham,IL,574,3.439,39.116630,-88.569680
218,1204,PETRO STOPPING CENTER #321,"I-70 & I-57, EXIT 159",Effingham,IL,574,3.399,39.116630,-88.569680
219,1208,D AVENUE FUEL PLAZA,US-131,Kalamazoo,MI,465,3.499,42.278400,-85.656140
220,1208,D AVENUE FUEL PLAZA,US-131,Kalamazoo,MI,465,3.099,42.278400,-85.656140
221,1210,ROADHAWK TRAVEL CENTER,"I-94, EXIT 56 & SR-51",Paw Paw                                 ,MI,465,3.599,42.197920,-85.970400
222,1210,ROADHAWK TRAVEL CENTER,"I-94, EXIT 56 & SR-51",Paw Paw                                 ,MI,465,3.559,42.197920,-85.970400
223,1217,KWIK TRIP #250,"I-90, EXIT 179",Austin,MN,515,3.374,43.666590,-92.975770
224,1218,CASEYS #3658,SR-210,Pillager,MN,522,3.299,46.336930,-94.380270
225,1225,AYERCO #35,US-61 & US-61 BUS,Bowling Green,MO,494,3.01566666,39.313280,-91.137050
226,1234,Lamar Travel Plaza,US-71 & US-160,Lamar,MO,416,3.199,37.494170,-94.316140
227,1236,AYERCO #44,US-36 & US-24,Palmyra,MO,494,3.01566666,39.833310,-91.517770
228,1240,TEMP STOP #103,US-65,Sedalia,MO,400,3.199,38.693130,-93.250880
229,1247,SNAPPY MART #11,US-63 & SR-14,West Plains,MO,535,3.299,36.821010,-92.097310
230,1251,MAPCO #3009,US-72,Corinth,MS,435,3.154,34.930930,-88.547510
231,1256,DOUBLE QUICK #89,US-82/US-278,Greenville,MS,655,3.25566666,33.399380,-91.051770
232,1265,JOE JOES TRAVEL CENTER,US-78 & RED BANKS RD S,Red Banks,MS,435,2.97233333,34.823920,-89.564580
233,1304,LOVES TRAVEL STOP #667,"I-85, EXIT 152",Mebane,NC,65,3.94733333,36.068240,-79.307670
234,1315,CIRCLE K #2720218,US-421 BUS & US-15/US-501/US-1,Sanford,NC,177,3.08233333,35.401750,-79.235280
235,1325,SCOTCHMAN #3303,US-421 & US-74,Wilmington,NC,245,3.629,34.242480,-77.859190
236,1326,SPEEDWAY #7949,US-301/US-264 ALT & CR-1674,Wilson,NC,205,3.199,35.736050,-77.949870
237,1333,PUMP & PANTRY #15,US-30,Grand Island,NE,330,3.30733333,40.922880,-98.344450
238,1340,BORDENTOWN VALERO,"NJ TNPK, EXIT 7 & US-206",Bordentown,NJ,230,3.499,40.140500,-74.703290
239,1342,Delta,"I-80, EXIT 47B",Fairfield,NJ,115,3.20233333,38.276300,-122.047380
240,1344,BOLLA TRUCK STOP #193,US-202 & SR-17,Mahwah,NJ,115,3.53233333,41.095520,-74.156800
241,1348,GLOBAL,SR-73,Palmyra,NJ,150,3.359,41.188020,-74.363060
242,1356,LOVES TRAVEL STOP #257,"I-40 & HORIZON, EXIT 79",Milan,NM,580,3.59066666,35.182980,-107.897750
243,1364,7- ELEVEN #40507,"I-80/I-90, MM 56 WB",Rolling Prairie,IN,465,3.98233333,41.722900,-86.603590
244,1372,PILOT TRAVEL CENTER #469,"I-77, EXIT 101 & SR-627",Canton,OH,249,3.62233333,40.747820,-81.406280
245,1376,FUEL MART #782,"I-75, EXIT 118",Lima                                    ,OH,411,3.08566666,40.654690,-84.131220
246,1379,TA LODI TRAVEL CENTER,"I-71, EXIT 209 & I-76/US-224, EXIT 1",Seville,OH,305,3.739,41.010130,-81.862220
247,1384,SUNOCO,"I-80/I-90, EXIT 13 & US-20ALT/SR-15",Montpelier,OH,550,3.41566666,41.613650,-84.543740
248,1391,ONCUE EXPRESS #2045,"I-35, EXIT 203 & SR-15",Billings,OK,500,3.21566666,36.535080,-97.442650
249,1395,DOMINO FOOD AND FUEL #1,"I-40, EXIT 66",Clinton                                 ,OK,483,3.099,35.426690,-99.212860
250,1404,ONE9 #339,"I-74, EXIT 4 & SR-63",Covington,IN,375,3.26233333,40.140010,-87.447050
251,1414,SAC SHOP #507,"I-70, EXIT 12/161",Breezewood                              ,PA,14,4.099,39.986510,-78.261710
252,1424,GETTYSBURG TRAVEL PLAZA,US-15 & SR-394,Gettysburg,PA,70,3.899,39.882180,-77.159900
253,1428,CIRCLE K #4702408,"I-65, EXIT 168 & SR-38/SR-25",Lafayette,IN,375,3.43233333,40.389520,-86.907080
254,1432,KWIK FILL #259,"I-81, EXIT 57",Mechanicsburg                           ,PA,70,4.049,40.266170,-77.049550
255,1444,PILOT TRAVEL CENTERS #346,"I-20, EXIT 92 & US-601",Lugoff,SC,135,3.43233333,34.222910,-80.683270
256,1445,PILOT TRAVEL CENTERS #402,"I-80, EXIT 367",Cheyenne,WY,795,3.709,41.134360,-104.810960
257,1447,HOT SPOT #3005,US-221,Chesnee,SC,210,3.199,35.151430,-81.858890
258,1453,EXPRESS STOP,US-278/SR-101/SR-6 & SR-113,Rockmart,GA,193,3.319,34.008850,-85.074850
259,1455,PETRO FLORENCE,"I-95, EXIT 169",Florence,SC,46,3.32566666,34.264760,-79.735810
260,1461,CIRCLE K #2705370,"I-26, EXIT 15 & US-176",Inman,SC,210,3.099,35.027110,-82.035320
261,1464,CIRCLE K #2723254,"I-20, EXIT 55 & SR-6",Lexington,SC,135,3.199,33.956270,-81.236200
262,1470,CIRCLE K #2705348,US-1,Beech Island,SC,135,3.159,33.498210,-81.910700
263,1479,TA SPARTANBURG TRAVEL CENTER,"I-85, EXIT 63 & SR-290",Duncan,SC,210,3.43233333,34.938660,-82.227070
264,1487,ROADRUNNER MARKET #6019,"I-81, EXIT 36 NORTH",Greeneville                             ,TN,405,3.499,36.319890,-82.838520
265,1492,MAPCO #3538,"I-24, EXIT 174",Chattanooga,TN,285,2.899,35.016450,-85.385490
266,1507,CIRCLE K #4703941,"I-55, EXIT 5A",Memphis,TN,435,3.189,35.061380,-90.019870
267,1516,LOVES TRAVEL STOP #261,I-27 EXIT 116,Amarillo,TX,585,3.23233333,35.126940,-101.903580
268,1531,CircleK #4702365,"I-74, EXIT 112 & SR-9",Shelbyville,IN,375,3.509,39.523290,-85.777020
269,1533,YESWAY #1157,US-62,Brownfield,TX,700,2.99233333,33.046010,-102.431440
270,1546,SHELL,"I-35, EXIT 86 & SR-85",Dilley,TX,740,3.099,28.676660,-99.182900
271,1548,TOOT N TOTUM #107,US-287,Dumas,TX,585,3.03233333,35.809910,-101.964280
272,1552,STRIPES #40911,US-59 & SR-16,Freer,TX,625,3.099,28.057170,-98.596130
273,1555,SEIBERT TRAVEL PLAZA,"I-70, EXIT 405 & SR-59",Seibert,CO,800,3.499,39.292800,-102.874170
274,1560,CATTREZ,US-20 & SR-5,Irving,NY,38,2.899,40.734240,-73.988580
275,1560,CATTREZ,US-20 & SR-5,Irving,NY,38,2.999,40.734240,-73.988580
276,1562,I MART #108,"I-40, EXIT 108",Wildersville                            ,TN,435,3.099,35.788560,-88.394940
277,1567,KUM & GO #4110,"I-235, EXIT 11",Des Moines,IA,320,3.02733333,41.610740,-93.578740
278,1579,FLYING J TRAVEL PLAZA #924- TOWN PUMP,"I-15, EXIT 122 & I-90 MM220",Butte                                   ,MT,816,3.56566666,45.982020,-112.504720
279,1582,LOVES TRAVEL STOP #250,I-40 EXIT 60,Amarillo,TX,585,3.314,35.190070,-102.016340
280,1585,Stripes 7Fleet #42498,US-385 & CR-1910,Andrews,TX,710,3.369,32.344180,-102.554540
281,1590,ROAD RANGER #240,"I-80 & I-94, EXIT 15-A",Lake Station,IN,365,3.559,41.581800,-87.244150
282,1596,FLYING J #305,"I-40, EXIT 39",Jamestown,NM,580,3.44233333,35.479510,-108.432560
283,1597,7-ELEVEN #36156,"I-70 & SR-519, EXIT 25/333",Eighty Four,PA,165,4.999,40.146050,-80.130580
284,1599,ONVO TRAVEL PLAZA,"I-81, EXIT 10",Mc Graw,NY,220,3.439,42.590550,-76.131760
285,1599,ONVO TRAVEL PLAZA,"I-81, EXIT 10",Mc Graw,NY,220,3.459,42.590550,-76.131760
286,1602,CIRCLE K #2723387,US-98,Beaumont,MS,620,3.56566666,31.156920,-88.917520
287,1606,DONNAS TRAVEL PLAZA,"I-5, EXIT 202",Marysville,WA,962,4.559,48.096340,-122.184740
288,1610,TA BALTIMORE TRAVEL CENTER,"I-95, EXIT 57",Baltimore                               ,MD,22,4.759,39.267000,-76.603630
289,1618,GO MART FOOD STORE #33,US-33,Ripley                                  ,WV,44,3.499,38.819510,-81.719350
290,1621,CIRCLE K #2709337,"I-65, EXIT 262B",Birmingham                              ,AL,615,3.489,33.543890,-86.826900
291,1622,RACEWAY #6973,US-380 & SR-114/SR-101,Bridgeport,TX,630,2.78233333,33.223200,-97.768770
292,1623,SAPP BROS TRAVEL CENTER,"I-70 & I-270, EXIT 278",Commerce City,CO,800,3.389,39.778220,-104.909240
293,1625,PILOT TRAVEL CENTERS #60,"I-26, EXIT 159",Bowman                                  ,SC,42,3.43233333,33.412020,-80.664470
294,1632,PILOT TRAVEL CENTERS #266,"I-10, EXIT 139 & SR-292",Las Cruces                              ,NM,640,3.19066666,32.297720,-106.812710
295,1633,7-ELEVEN #36302,"I-35, EXIT 144",Von Ormy,TX,740,3.109,29.312190,-98.613880
296,1634,PILOT TRAVEL CENTERS #40,"I-94, EXIT 322",Oak Creek,WI,444,3.889,42.867660,-87.937280
297,1644,ALLSUPS CONVENIENCE STORE #2414,"I-20, EXIT 235",Roscoe,TX,575,2.929,32.434930,-100.553840
298,1646,SPEEDWAY #8310,US-6  & US-31,Plymouth,IN,465,3.609,41.445500,-86.059560
299,1647,SPEEDWAY #8305,US-41 & SR-312,Hammond,IN,290,3.76566666,41.632660,-87.524380
300,1653,ROAD RANGER #187,"I-55, EXIT 289",Chicago,IL,520,3.569,41.793850,-87.619450
301,1653,ROAD RANGER #187,"I-55, EXIT 289",Chicago,IL,520,3.599,41.793850,-87.619450
302,1654,CEFCO #3,US-77/US190/SR-36,Cameron,TX,670,2.989,30.847360,-96.965350
303,1661,CHEVRON,"I-20, EXIT 101 & SR-151",Calhoun,LA,590,3.159,32.512910,-92.358140
304,1669,BETTY BEAVERS TRUCKSTOP,"I-90, EXIT 28",Fultonville,NY,12,3.149,42.945550,-74.364460
305,1669,BETTY BEAVERS TRUCKSTOP,"I-90, EXIT 28",Fultonville,NY,12,3.189,42.945550,-74.364460
306,1670,Petro Stopping Center #54,"I-44, EXIT 4 & SR-3",Joplin,MO,277,3.449,37.008690,-94.553080
307,1671,LOVES TRAVEL STOP #412,"I-95, EXIT 77",Dunn,NC,205,3.699,35.339290,-78.559490
308,1672,HANA TRAVEL PLAZA,"I-40,  EXIT 77",Amarillo,TX,585,2.899,35.239840,-101.619300
309,1699,ALLENS FOOD MART280,US-280/US-231/SR-53/SR-38 & CR-8/CR-34,Sylacauga,AL,615,3.799,33.165920,-86.277490
310,1700,TOPPS FUEL STOPS,US-259/SR-49,Daingerfield,TX,723,3.109,33.044480,-94.726050
311,1720,TOOT N TOTUM #120,US-54 & S WESTERN AVE,Liberal,KS,585,3.01566666,37.027830,-100.940740
312,1749,HIGHWAY 96 FUEL STOP,US-96 & SR-62/FM-1004,Buna                                    ,TX,610,3.149,30.441690,-93.969200
313,1753,PWI #169,"I-35/US-77, EXIT 359 & CR-1304",Abbott,TX,765,2.899,31.851490,-97.085880
314,1773,M-46 AUTO TRUCK PLAZA,"US-131, EXIT 120 & SR-46",Howard City,MI,344,3.199,43.418960,-85.499010
315,1773,M-46 AUTO TRUCK PLAZA,"US-131, EXIT 120 & SR-46",Howard City,MI,344,3.599,43.418960,-85.499010
316,1773,M-46 AUTO TRUCK PLAZA,"US-131, EXIT 120 & SR-46",Howard City,MI,344,3.099,43.418960,-85.499010
317,1791,PILOT TRAVEL CENTERS #257,"I-20, EXIT 126 & FM-1788",Midland                                 ,TX,710,3.56566666,31.977620,-102.050920
318,1807,LOVES TRAVEL STOP #229,I-40 EXIT 96 & SR-207,Panhandle,TX,585,3.314,35.218340,-101.382550
319,1810,KENT KWIK #804,US-83,Perryton,TX,585,2.999,36.382610,-100.802590
320,1829,PILOT TRAVEL CENTERS #96,"SR- 60 & FL TURNPIKE, EXIT 193",Okeechobee,FL,143,3.719,27.386340,-80.888540
321,1829,PILOT TRAVEL CENTER #96,"SR- 60 & FL TURNPIKE, EXIT 193",Okeechobee,FL,143,3.699,27.386340,-80.888540
322,1832,CORNER FUEL CENTER,US-49,Hattiesburg,MS,620,3.299,31.274430,-89.288060
323,1834,PUMP N PANTRY #15,"I-20, EXIT 617 & US-59",Marshall,TX,766,2.899,32.540550,-94.349320
324,1849,Stripes #42457,US-67/US-277,San Angelo,TX,740,3.244,31.471200,-100.439720
325,1855,EXIT 76 AUTO TRUCK PLAZA,US-131,Byron Center,MI,344,3.499,42.791330,-85.668350
326,1858,FLYING J TRAVEL PLAZA #737,"I-10, EXIT 583",San Antonio                             ,TX,740,3.224,29.449890,-98.346010
327,1859,GO MART FOOD STORE #44,"I-79, EXIT 67 & US-19/SR-4",Sutton,WV,44,3.559,38.673700,-80.715870
328,1860,MR FUEL #278,"I-75/71, EXIT 175 & SR-338",Walton,KY,300,3.019,38.917800,-84.627530
329,1861,PETRO STOPPING CENTER #315,"I-40, EXIT 66",Kingman,AZ,910,3.899,35.178400,-113.794320
330,1866,PRI MART FUEL CENTER,"I-94, EXIT 29",Benton Harbor                           ,MI,465,3.799,42.115930,-86.455820
331,1866,PRI MART FUEL CENTER,"I-94, EXIT 29",Benton Harbor                           ,MI,465,3.499,42.115930,-86.455820
332,1873,JDS TRUCKSTOP,"US-12 & US-31, EXIT 3",Niles,MI,465,3.749,41.842170,-86.315360
333,1873,JDS TRUCKSTOP,"US-12 & US-31, EXIT 3",Niles,MI,465,3.849,41.842170,-86.315360
334,1874,CIRCLE K #2744529,US-175,Seagoville,TX,630,2.95066666,32.653920,-96.554540
335,1879,HOLIDAY STATIONSTORE #3552,"I-35, EXIT 81 & SR-70",Lakeville,MN,448,3.549,44.701220,-93.286530
336,1888,STRIPES 7FLEET #42449,US-87,Sterling City,TX,710,3.28066666,31.785990,-100.903020
337,1889,TOOT N TOTUM #105,US-54 & US-287,Stratford,TX,585,2.96566666,36.331680,-102.073050
338,1893,MIKE MCDONALD TRUCK STOP,"I-20, EXIT 509",Terrell                                 ,TX,637,2.87066666,32.716070,-96.321390
339,1894,CIRCLE K #2741544,"I-37 & SR-72, EXIT 69",Three Rivers,TX,747,3.06566666,28.461250,-98.112650
340,1897,YESWAY #1077,"I-20/US-84, EXIT 278",Tye,TX,575,2.87566666,32.459690,-99.868400
341,1905,LUCKY TRUCK STOP,US-82,Whitesboro                              ,TX,630,2.88566666,33.667150,-96.916400
342,1909,RALLYSTOP #1,"I-15, EXIT 62",Cedar City,UT,791,3.459,37.678550,-113.061780
343,1914,LOVES TRAVEL STOP #792,"I-70, EXIT 160",Green River,UT,835,3.709,38.995480,-110.164830
344,1921,BELL TRUCK STOP,"I-80, EXIT 146",Park City,UT,835,3.45233333,40.727620,-111.505940
345,1923,SCENIC QUIK STOP,"I-70, EXIT 54 & US-89",Salina,UT,835,3.459,38.958480,-111.860080
346,1930,CASEYS #3058,"I-35, EXIT 19 & US-160 E",Wellington,KS,570,3.299,37.266020,-97.475600
347,1931,RBS ONE STOP,"I-15, EXIT 320",Woods Cross                             ,UT,835,3.459,40.892570,-111.896070
348,1934,CIRCLE K #2723710,"I-77, EXIT 24",Austinville,VA,185,3.24066666,36.852780,-80.862890
349,1936,QUICK STOP MARKET #36,"I-81, EXIT 10 & US-11",Bristol,VA,185,3.399,36.608530,-82.175780
350,1940,7-ELEVEN #40063,"I-81, EXIT 98 & SR-100",Dublin,VA,65,3.199,37.100100,-80.690890
351,1944,LOVES TRAVEL STOPS #399,"I-77, EXIT 1 & SR-620",Lambsburg,VA,65,3.589,36.578430,-80.740510
352,1944,LOVES TRAVEL STOP #399,"I-77, EXIT 1 & SR-620",Lambsburg,VA,65,3.589,36.578430,-80.740510
353,1950,7-ELEVEN #34515,"I-81, EXIT 205",King George,VA,180,3.399,38.268330,-77.184060
354,1951,CIRCLE K #2723713,"I-81, EXIT 205",Staunton,VA,185,3.38566666,38.468900,-77.436640
355,1953,FAS MART #3555,"I-64, EXIT 136 & US-15",Gordonsville,VA,180,3.699,38.129760,-78.187460
356,1954,Joe's Kwik Mart #8409,US-58 & CR-645,Suffolk,VA,130,3.03233333,36.722440,-76.638660
357,1956,PILOT TRAVEL CENTER #4642,"I-81, EXIT 291",Toms Brook,VA,60,3.659,38.962940,-78.439710
358,1958,SPEEDWAY #4618,"I-81 & I-77, EXIT 77",Wytheville,VA,185,3.41233333,36.937560,-80.997190
359,1960,MAPLEWOOD IRVING,"I-89, EXIT 7",Montpelier                              ,VT,170,3.699,44.212650,-72.582910
360,1962,SUPER QUIK,"I-64, EXIT 172 & SR-1/SR-7",Grayson,KY,255,3.799,38.332110,-82.945540
361,1976,One9 #963,"I-90, EXIT 276",Spokane                                 ,WA,970,3.989,47.653550,-117.406930
362,1976,One9 #963,"I-90, EXIT 276",Spokane                                 ,WA,970,3.959,47.653550,-117.406930
363,1977,GEE CEES TRUCK STOP,"I-5, EXIT 57",Toledo,WA,977,3.839,46.395360,-122.900680
364,1983,KWIK TRIP #427,"US-53, EXIT 110 & SR-40",Bloomer,WI,295,3.41566666,45.120260,-91.461770
365,1985,Camp Douglas BP,"I-90 & I-94, EXIT 55",Camp Douglas                            ,WI,420,3.154,43.923210,-90.265900
366,2000,RIVER CITY TRAVEL PLAZA,US-41,Marinette,WI,360,3.399,45.061800,-87.705730
367,2002,KWIK TRIP #222,US-53/US-2,Superior,WI,334,3.339,46.720570,-92.079040
368,2009,KWIK TRIP #139,"I-43, EXIT 120 & CR-V/CR-OK",Sheboygan,WI,444,3.29066666,43.674630,-87.941910
369,2020,BFS FOODS #72,"I-68, EXIT 23 & SR-26",Bruceton Mills,WV,165,3.499,39.665890,-79.621010
370,2021,GO MART FOOD STORE #59,"I-64, EXIT 15 & US-60",Huntington,WV,255,3.499,38.418110,-82.457730
371,2022,GO MART FOOD STORE #86,"I-79, EXIT 40 & SR-16",Ivydale                                 ,WV,44,3.599,38.532110,-81.027540
372,2029,HOMAX SERVICE,"I-25, EXIT 188",Mills                                   ,WY,790,3.169,42.840580,-106.372010
373,2030,GHOST TOWN FUEL STOP,US-26/US-20,Casper,WY,790,3.429,43.011720,-106.735030
374,2034,TA CHEYENNE TRAVEL CENTER,"I-80, EXIT 377 & SR-217/CR-140",Cheyenne,WY,795,3.699,41.132490,-104.815990
375,2040,Fast Stop Travel Centers #1133,"I-25, EXIT 126 & US-18/20",Douglas,WY,790,3.499,42.658480,-105.174380
376,2041,PINE BLUFFS SINCLAIR,"I-80, EXIT 401 & US-30",Pine Bluffs,WY,795,3.699,41.175320,-104.069760
377,2044,One9 #1251,"I-80, EXIT 173",Wamsutter,WY,795,3.499,41.671710,-107.986940
378,2074,STRIPES #40522,"I-10, EXIT 550",San Antonio,TX,740,3.059,29.467870,-98.285010
379,2076,ALLSUPS CONVENIENCE STORE #2159,US-283 BUS/US-277 BUS & SR-422,Seymour,TX,770,3.299,33.576320,-99.272570
380,2078,ALLSUPS CONVENIENCE STORE #2366,US-84 & CR-3300,Slaton                                  ,TX,700,2.969,33.462860,-101.675130
381,2084,Main Street Market #112,"I-20, EXIT 73",Wickett,TX,710,2.879,31.561230,-102.996470
382,2087,LWS TRUCK STOP,SR-30,Logan,UT,835,3.42566666,41.735790,-111.868570
383,2088,FLYING J TRAVEL PLAZA #773,"I-70, EXIT 40",Richfield                               ,UT,835,3.699,38.767540,-112.084780
384,2089,FLYING J TRAVEL PLAZA #774,"I-84, EXIT 7",Snowville                               ,UT,835,3.749,41.961420,-112.720960
385,2115,KWIK TRIP #838,SR-23/SR-33,Reedsburg,WI,420,3.194,43.532510,-90.009680
386,2125,BIG D #44,"I-80, EXIT 311 & SR-130",Laramie,WY,795,3.249,41.295330,-105.586050
387,2144,Mountain View Truck Stop,US-15,Thurmont,MD,60,4.099,39.611600,-77.422080
388,2152,SPEEDWAY #4709,"I-90, EXIT 102",Fairmont,MN,425,3.299,43.679200,-94.447560
389,2167,PILOT TRAVEL CENTERS #134,"I-94, EXIT 171 (CR 75)",Saint Cloud,MN,451,3.28733333,45.488270,-94.148010
390,2182,PILOT TRAVEL CENTER #4649,"I-64 & I-81, EXIT 205",Raphine,VA,185,3.659,37.929720,-79.231210
391,2192,GO MART FOOD STORE #51,US-19/SR-129,Mount Nebo                              ,WV,44,3.599,38.196410,-80.861460
392,2194,A AND A TRUCKSTOP,US-35 & CR-41,Jackson,OH,315,3.799,38.998810,-82.553350
393,2196,Certified Oil #400410,I-76 EXIT 43,Ravenna,OH,249,3.31566666,41.109860,-81.237080
394,2204,NATURAL BRIDGE SHELL,US-278 & SR-5,Lynn,AL,615,3.68233333,34.087060,-87.596580
395,2209,Roadrunner #471,"I-40/US-65, EXIT 142 & SR-365",North Little Rock,AR,695,3.03233333,34.792140,-92.260180
396,2219,PILOT TRAVEL CENTER #66,"I-85, EXIT 129",Braselton,GA,16,3.27233333,34.116510,-83.765860
397,2219,PILOT TRAVEL CENTERS #66,"I-85, EXIT 129",Braselton,GA,16,3.27233333,34.116510,-83.765860
398,2223,PO JOS GAS N GO,"I-16 SR-404, EXIT 116 & US-301/SR-73",Register,GA,195,3.23233333,32.265390,-81.873380
399,2227,SPEEDWAY #7448,SR-59,Naperville,IL,293,3.299,41.791350,-88.205440
400,2227,SPEEDWAY #7448,SR-59,Naperville,IL,293,3.359,41.791350,-88.205440
401,2231,QUIKTRIP #605,"I-270, EXIT 33",Saint Louis,MO,540,2.899,38.693630,-90.450330
402,2255,S&G #36,"I-280, EXIT 2 & SR-795",Millbury,OH,550,3.49233333,41.558770,-83.460230
403,2267,Circle K #4703917,"I-65, EXIT 112 & SR-25",Cross Plains,TN,460,2.949,36.524790,-86.643930
404,2283,CIRCLE K #2707321,SR-60,Bartow,FL,225,3.52233333,27.909570,-81.775140
405,2287,SAC SHOP #511,"I-76/I-70, EXIT 146 & I-99/US-220 EXIT 1",Bedford,PA,14,4.099,40.040070,-78.503820
406,2306,SCOTCHMAN #3894,"I-77, EXIT 73 & SR-901",Rock Hill,SC,210,3.079,34.861560,-81.005590
407,2310,MAPCO #3686,"I-24, EXIT 175",Chattanooga,TN,285,2.889,35.026410,-85.368430
408,2311,SHELL,"I-24 & EPPS MILL RD, EXIT 89",Christiana                              ,TN,460,3.13233333,35.720020,-86.335460
409,2331,PINNERS POINT,SR-135,Portsmouth,VA,130,3.499,42.989570,-70.932340
410,2336,FLYING J TRAVEL PLAZA #754,"I-77 & I-81, EXIT 77",Wytheville,VA,185,3.549,36.937560,-80.997190
411,2340,RSTORE #4478,SR-8 & SR-13,Prentice,WI,395,3.039,45.538820,-90.313500
412,2557,PWI #106,"I-30, EXIT 77B",Royse City,TX,630,2.899,32.969800,-96.331630
413,2602,PILOT TRAVEL CENTERS #9,"I-75, EXIT 36",Franklin,OH,407,3.35233333,39.539600,-84.297930
414,2623,TA JANESVILLE TRAVEL CENTER,"I-90/I-39, EXIT 171B & US-14",Janesville,WI,420,3.299,42.729700,-89.031200
415,2626,WEST END SINCLAIR,"I-80, EXIT 211",Rawlins,WY,838,3.319,41.788310,-107.237030
416,2629,PILOT TRAVEL CENTERS #253,"I-295 & NJ TRNPK,  EXIT 2B",Penns Grove,NJ,243,3.989,39.683250,-75.481070
417,2635,FLYING J #584,"I-5, EXIT 278",Aurora,OR,935,3.859,45.231770,-122.809200
418,2638,PIT STOP TRAVEL CENTER,US-789,Riverton                                ,WY,790,4.399,43.024670,-108.380930
419,2640,LITTLE NASHVILLE,"I-64, EXIT 50 & SR-127",Nashville,IL,540,3.399,38.215200,-89.380080
420,2640,LITTLE NASHVILLE,"I-64, EXIT 50 & SR-127",Nashville,IL,540,3.299,38.215200,-89.380080
421,2644,FREDERICKS TRAVEL CENTER,"I-25/US-87, EXIT 235 & SR-52",Erie,CO,800,3.499,40.087570,-105.050670
422,2756,PAR MAR FOOD STORE #89,"I-77/SR-2, EXIT 170 & SR-14 E",Mineral Wells,WV,430,3.499,39.188030,-81.527970
423,2761,PONY EXPRESS SERVICE CENTER,US-36 & SR-148,Hanover,KS,316,2.95566666,39.892450,-96.862290
424,2764,LOVES TRAVEL STOP #046,US-64/54 & SR-94,Hooker,OK,585,3.56233333,36.858550,-101.209960
425,2765,LOVES TRAVEL STOP #023,US-50 & US-287,Lamar,CO,525,3.46233333,38.090060,-102.619370
426,2772,PILOT TRAVEL CENTERS #29,"I- 80, EXIT 144; I-69, EXIT 357",Fremont                                 ,IN,465,3.899,41.735500,-84.998400
427,2772,PILOT TRAVEL CENTER #29,"I- 80, EXIT 144; I-69, EXIT 357",Fremont                                 ,IN,465,3.899,41.735500,-84.998400
428,2779,Stinker #121,I-84 & EXIT 208,Heyburn,ID,787,3.56066666,42.568380,-113.782700
429,2788,JIFFY MART #451,"I-91, EXIT 17 & SR-302",Wells River,VT,39,3.569,43.375310,-73.202750
430,2805,Fast Stop Travel Centers #1145,"I-15,  EXIT 31",Downey,ID,825,3.799,42.426520,-112.184220
431,2807,SUDDEN SERVICE #25,"I-24, EXIT 11",Clarksville,TN,460,3.30733333,36.521670,-87.215800
432,2811,KWIK FILL #22,"I-90, EXIT 40 & SR-34/SR-31",Weedsport,NY,220,3.899,43.060410,-76.567830
433,2817,Chevron #382354,"I-5/US-12, EXIT 72",Chehalis,WA,977,4.299,46.602700,-122.904890
434,2848,TA TONOPAH TRAVEL CENTER,"I-10, EXIT 103",Tonopah,AZ,930,3.939,33.463840,-112.787580
435,2851,SPEEDWAY #2958,"I-8, EXIT 12",Yuma,AZ,900,3.479,32.670380,-114.449360
436,2862,TA TALLULAH TRAVEL CENTER,"I-20, EXIT 171 & US-65",Tallulah,LA,760,3.209,32.426600,-91.175480
437,2864,KUM & GO #0493,I-49 BUS/SR-59,Neosho,MO,535,3.059,36.815790,-94.395250
438,2875,CIRCLE K #2744138,"I-25, EXIT 101 & US-50/SR-47",Pueblo,CO,803,3.399,38.272380,-104.545240
439,2883,PILOT TRAVEL CENTER #293,"I-75, EXIT 341 & CR-484",Ocala                                   ,FL,140,3.41233333,29.025530,-82.140000
440,2883,PILOT TRAVEL CENTERS #293,"I-75, EXIT 341 & CR-484",Ocala                                   ,FL,140,3.359,29.025530,-82.140000
441,2885,SP Truckstop & Travel Center,US-84/SR-38,Bainbridge,GA,20,3.599,30.922130,-84.608010
442,2889,MOULTON COWBOYS,SR-157,Moulton                                 ,AL,615,3.099,34.490690,-87.278010
443,2891,PETRO STOPPING CENTER #338,"I-80, EXIT 21",Sparks,NV,966,3.949,39.527170,-119.706670
444,2895,EAGLE TRUCK STOP,I-77 EXIT 81,New Philadelphia,OH,249,3.31566666,40.488240,-81.478840
445,2896,NORTH LEWISTON DYNAMART,US-12 & SR 128,Lewiston,ID,970,3.669,46.431200,-117.039420
446,2897,GAS N GO #15,"I-80, EXIT 41",Lyman,WY,827,3.46566666,41.365470,-110.305330
447,2910,FLYING J TRAVEL PLAZA #685,"I-29 & I- 94, EXIT 349",Fargo                                   ,ND,341,3.569,46.842590,-96.841140
448,2913,ONE9#226,"I-40, EXIT 417 & SR-92",Dandridge,TN,405,3.259,36.043910,-83.452760
449,2915,TP TRUCK STOP,"I-15, EXIT 80",Fort Hall                               ,ID,825,3.519,43.018560,-112.407920
450,2917,GOLDYS TRUCK PLAZA,US-29,Rustburg,VA,185,3.519,37.259570,-79.182470
451,2922,LOVES TRAVEL STOP #210,"I-40, EXIT 158",Albuquerque,NM,580,3.52066666,35.106730,-106.653190
452,2923,LOVES TRAVEL STOP #435,"I-95, EXIT 104 & SR-207",Ruther Glen,VA,180,3.611,37.938370,-77.472700
453,2923,LOVES TRAVEL STOPS #435,"I-95, EXIT 104 & SR-207",Ruther Glen,VA,180,3.589,37.938370,-77.472700
454,2924,HWY 190 FUEL STOP,US-190,Jasper                                  ,TX,610,3.13233333,30.906150,-94.014290
455,2926,EXIT 77 TRAVEL PLAZA,"I-81, EXIT 77 & SR-39",Harrisburg,PA,70,3.499,40.336990,-76.711970
456,2929,TA EXPRESS STEELE,"I-94, EXIT 200 & SR- 3",Steele,ND,390,3.599,47.515280,-97.835890
457,2935,CIRCLE K #2726163,"I-295, EXIT 22",Jacksonville,FL,75,3.299,30.331540,-81.763010
458,2937,FLYING J TRAVEL PLAZA #664,"I-75, EXIT 171",Walton,KY,300,3.08566666,38.855210,-84.622450
459,2956,PILOT TRAVEL CENTERS #275,"I-85, EXIT 39 I-77, EXIT 13",Charlotte,NC,46,3.55233333,35.222860,-80.837960
460,2963,SUPERPUMPER #26,"I-94, EXIT 258 & US-281",Jamestown,ND,390,3.629,46.906900,-98.708420
461,2967,PETRO STOPPING CENTER #317,"I-57, EXIT 71",Perrysburg,OH,550,3.78566666,41.585720,-83.547880
462,2968,E-Z MART #4460,"I-20,  EXIT 124",Monroe,LA,719,3.129,32.489320,-91.995610
463,2977,DISCOUNT FUEL,"I-90, EXIT 150 & SR-73",Kadoka,SD,506,3.229,43.842700,-101.525490
464,2982,CIRCLE K #2723726,"I-59/I-20, EXIT 52 & US-11/US-43/SR-7",Knoxville,AL,705,3.089,32.985030,-87.789190
465,3003,CHEVRON,"I-20, EXIT 186",Delta                                   ,LA,760,2.994,32.320140,-90.957720
466,3008,BUSY BEE,"I-10, EXIT 283 & US-129",Live Oak,FL,10,3.779,30.295260,-82.984910
467,3022,TA GREENCASTLE TRAVEL CENTER,"I-81, EXIT 5",Greencastle,PA,70,3.959,39.782640,-77.714370
468,3030,Mr Ts Riverside,US-412,Cardwell                                ,MO,435,3.199,36.039120,-90.290140
469,3064,PORTS TO PLAINS TRAVEL PLAZA,US-50 & US-287,Lamar,CO,800,3.399,38.090060,-102.619370
470,3086,SPEEDWAY #4638,US-29,Madison Heights,VA,185,3.49566666,37.448540,-79.076330
471,3093,RSTORE #4488,US-51,Merrill,WI,395,3.24066666,45.080100,-89.642430
472,3096,HOBO PANTRY #6,US-431/SR-210,Dothan,AL,20,3.959,31.244910,-85.372880
473,3118,MOBIL,"I-87, EXIT 42 & US-11",Champlain,NY,39,3.799,45.004180,-73.368470
474,3128,TA ATLANTA SOUTH TRAVEL CENTER,"I-75, EXIT 201 & SR-36",Jackson,GA,18,3.334,33.210890,-84.063500
475,3138,TA EXPRESS #6264,"I-70, EXIT 26 & US-50",Grand Junction,CO,800,4.049,39.065450,-108.570740
476,3139,CHEROKEE TRAVEL MART,"I-40,  EXIT 108",Calumet                                 ,OK,483,3.10566666,35.534090,-98.242250
477,3148,YESWAY #1038,US-60 & SR-86,Neosho,MO,307,3.059,36.880550,-94.425070
478,3155,QUIK MART #18,US-72/SR-157,Tuscumbia                               ,AL,615,3.00733333,34.720200,-87.668000
479,3163,QUIKTRIP #71,"I-44, EXIT 238",Tulsa,OK,560,3.039,36.162430,-95.798020
480,3164,QUIKTRIP #102,"I-44, EXIT 222A",Tulsa,OK,560,3.039,36.076550,-96.051150
481,3165,LOVES TRAVEL STOP #213,"I-35, EXIT 211",Tonkawa,OK,500,3.584,36.648630,-97.345730
482,3167,JASPER FOOD MART,US-78,Jasper,AL,615,3.229,33.831540,-87.320630
483,3171,One9 #265,"I-40, EXIT 287 & SR-136",Cookeville,TN,405,3.084,36.161780,-85.500320
484,3176,BP,US-6 & SR-15,New Paris                               ,IN,365,3.65733333,41.449540,-85.844220
485,3178,ERNIES FUEL STOP #1605,SR-167,Kent,WA,977,4.599,47.419960,-122.221240
486,3179,MR FUEL #1020,"I-80 & I-94, EXIT 15B",Lake Station,IN,365,3.56566666,41.583090,-87.239910
487,3191,BUSY CORNER TRUCK STOP AND MARKET,"I-24, EXIT 105 & US-41/SR-2",Manchester,TN,460,3.049,35.481320,-86.087550
488,3205,CROSSROADS TRUCK STOP STATION,"I-29 & SR 34, MM 109",Colman                                  ,SD,530,3.159,43.979100,-96.814300
489,3206,PERHAM OASIS,US-10 & SR-78,Perham,MN,250,3.499,46.531370,-95.574460
490,3215,SHELL TRUCKSTOP,"I-4, EXIT 44",Polk City,FL,225,3.449,28.157210,-81.806190
491,3216,MAXS #124,"I-24, EXIT 86 & US-41",Oak Grove,KY,460,3.04233333,36.705130,-87.461450
492,3221,Pilot #1440,"US-67, EXIT 55 & US-64/US-167 & SR-367",Bald Knob,AR,695,3.399,35.313210,-91.562980
493,3221,Southern Travel Plaza,"US-67, EXIT 55 & US-64/US-167 & SR-367",Bald Knob,AR,695,3.391,35.313210,-91.562980
494,3222,POMPANO TRUCK STOP,"I-95, EXIT 36B",Pompano Beach,FL,95,3.759,26.234770,-80.136300
495,3226,ONE9 #245,"I-81, EXIT 77 & SR-39",Harrisburg,PA,70,3.609,40.336990,-76.711970
496,3227,ONE9 MR FUEL #64,"I-26 & US-17, EXIT 199",Summerville,SC,42,3.219,33.035920,-80.146150
497,3227,MR FUEL DBA ONE9 #64,"I-26 & US-17, EXIT 199",Summerville,SC,42,3.219,33.035920,-80.146150
498,3230,STRIPES #40815,US-281 & US-285,Falfurrias,TX,625,3.299,27.226960,-98.146130
499,3264,TA WEST MEMPHIS TRAVEL CENTER,"I-40/US-63, EXIT 260 & SR-149",Earle,AR,435,3.36733333,35.260790,-90.455150
500,3280,OUTPOST TRUCK STOP,US-85 & US-18/US-20,Lusk,WY,790,3.689,42.764750,-104.452230
501,3281,AMERICAN TRUCK PLAZA,I-80 EXIT 215 & SR-254,Milton,PA,138,3.799,41.020290,-76.852560
502,3284,CASEYS #4390,"I-49/US-71, EXIT 77 & US-160",Lamar,MO,416,3.199,37.494060,-94.311250
503,3297,SAPP BROS TRAVEL CENTER,"I-80, EXIT 370",Cheyenne,WY,795,3.70066666,41.134350,-104.810970
504,3316,TRUCKOMAT OF N LITTLE ROCK,"I-40, EXIT 161 & SR-391",North Little Rock                       ,AR,695,3.249,34.778610,-92.257830
505,3326,MIRABITO #61,"I-81, EXIT 32",Central Square,NY,12,4.299,43.270290,-76.130740
506,3330,TA # 211 GREENLAND TRAVEL CENTER,"I-95, EXIT 3A & US-101",Greenland,NH,34,3.759,43.025640,-70.827010
507,3349,QUEEN CITY TRUCK STOP,"I-20 & I-59, EXIT150",Meridian,MS,705,2.939,32.350880,-88.740820
508,3383,E-Express at Central Truck Stop,"I-35, EXIT 137",Oklahoma City,OK,483,2.879,35.338940,-97.492340
509,3386,LONGMONT TRUCK STOP,"I-25/US-87, EXIT 240 & SR-119",Longmont,CO,800,3.239,40.160160,-105.050670
510,3401,POPS Mart #333,"I-77, EXIT 48 & SR-200",Winnsboro,SC,46,3.09066666,34.513300,-80.998410
511,3413,COUNTRY GIRL TRUCK STOP,US-167 & SR-156,Winnfield,LA,590,3.319,31.957020,-92.653550
512,3415,JAYS EL CHEAPO FUEL STOP,"I-16, EXIT 104",Metter                                  ,GA,195,3.249,32.374450,-82.072510
513,3418,Par Mar Store #164,"I-79, EXIT 105 & CR-7",Jane Lew,WV,165,3.999,39.108040,-80.405360
514,3421,ERNIES TRUCK STOP,"I-5, EXIT 142",Federal Way,WA,977,4.599,47.283880,-122.255120
515,3422,PWI #167,"I-10, EXIT 601",Seguin,TX,740,2.889,29.598830,-97.959300
516,3427,JOHNNYS MARKET,"I-69, EXIT 357",Fremont,IN,465,3.699,41.742570,-84.998400
517,3432,PILOT TRAVEL CENTER #34,"I-65, EXIT 201 & US-231",Remington,IN,365,3.709,40.765870,-87.152110
518,3432,PILOT TRAVEL CENTERS #34,"I-65, EXIT 201 & US-231",Remington,IN,365,3.659,40.765870,-87.152110
519,3435,PWI #168,"I-35, EXIT 266 & SR-195",Georgetown,TX,740,2.799,30.651290,-97.679290
520,3444,Acme Truck Stop,US-441/SR-500,Orlando,FL,140,3.449,28.548950,-81.397390
521,3460,CHROME TRUCK STOP,US-18 & US-169,Algona,IA,433,3.499,43.082810,-94.239310
522,3464,BOISE PETROLEUM LLC,"I-84,  EXIT 71",Boise,ID,785,3.379,43.382030,-115.993290
523,3471,MR FUEL DBA ONE9 #72,"I-16, EXIT 160",Savannah,GA,195,3.13233333,32.070450,-81.207390
524,3471,ONE9 MR FUEL #72,"I-16, EXIT 160",Savannah,GA,195,3.119,32.070450,-81.207390
525,3475,PILOT TRAVEL CENTERS #56,"I-85, EXIT 63",Kannapolis,NC,46,3.499,35.494480,-80.566690
526,3477,CIRCLE K #4707404,"I-91, EXIT 7",Springfield,VT,170,3.699,43.268900,-72.433670
527,3479,FAST MARKET #4550,"I-75/SR-401, EXIT 136 & US-341",Perry,GA,85,3.099,32.468220,-83.745180
528,3493,CIRCLE K #2723675,"I-75, EXIT 290 & SR-20",Cartersville,GA,18,3.08566666,34.247250,-84.778650
529,3519,PILOT TRAVEL CENTERS #431,"I-10, EXIT 873",Orange,TX,610,3.309,30.116570,-93.825230
530,3522,SUNMART #308,US-59,Livingston                              ,TX,610,2.859,30.669060,-94.949880
531,3526,JOE STOP 99,"I-75, EXIT 99 & SR-119",Anna,OH,411,3.064,40.395110,-84.173620
532,3530,SPARKYS ONE STOP #22,"I-35, EXIT 111B & US-30",Jefferson,IA,320,3.23233333,38.261000,-85.800740
533,3536,PETRO STOPPING CENTER #307,I-40 EAST & S LAKESIDE Dr,Amarillo,TX,585,3.279,35.128920,-101.742340
534,3539,Bigs 211,"I-10, EXIT 620 & SR-123",Seguin,TX,740,3.099,29.549000,-98.045910
535,3545,STOCKMENS TRUCK PLAZA,"I-494, EXIT 64A",South Saint Paul,MN,450,3.499,44.879580,-93.025520
536,3580,STINKER I 80 TRAVEL PLAZA,"I-80, EXIT 221 & SR-76",Sinclair,WY,838,3.759,41.741420,-106.837140
537,3585,CHEVRON,"I-80, EXIT 129",Lovelock,NV,966,3.499,40.172900,-118.479090
538,3588,BINGO TRUCK STOP,"I-10, EXIT 829 & SR-124",Winnie                                  ,TX,610,2.999,29.817780,-94.383920
539,3592,TA BRIDGER TRAVEL CENTER #188,"I-80, EXIT 30 & CR-202",Fort Bridger,WY,835,3.71566666,41.311810,-110.507920
540,3593,TA Parowan Travel Center,"I-15, EXIT 78",Parowan,UT,910,3.70566666,37.843730,-112.827650
541,3605,SPEEDYS #6,"I-35, EXIT 33",Saint Joseph,MO,400,3.169,38.419100,-90.681340
542,3608,FUEL MART #787,"I-57, EXIT 212 & US-36",Tuscola,IL,280,3.199,39.791640,-88.285710
543,3614,PILOT TRAVEL CENTERS #35,"I-80/90, EXIT 72 & US-31",South Bend                              ,IN,465,3.799,41.730250,-86.338170
544,3614,PILOT TRAVEL CENTER #35,"I-80/90, EXIT 72 & US-31",South Bend                              ,IN,465,3.799,41.730250,-86.338170
545,3616,PILOT TRAVEL CENTERS #15,"I-75, EXIT 210",Toledo,OH,550,3.77233333,41.717770,-83.502070
546,3619,ROAD RANGER #141,"I-70, EXIT 23",Brazil,IN,375,3.659,39.449400,-87.132270
547,3620,One9 #16,"I-71 & US-68, EXIT 50",Wilmington                              ,OH,315,3.14233333,39.444750,-83.828640
548,3645,SNOW SHOE TRAVEL PLAZA,"I-80, EXIT 147 & SR-144",Snow Shoe,PA,14,3.469,41.033740,-78.005140
549,3678,TIMES MARKET #299,US-281 BUS,Alice,TX,625,3.099,27.729430,-98.077230
550,3688,SPEEDWAY #2314,"I-94, EXIT 243 & SR-29",New Baltimore,MI,342,3.559,42.668440,-82.826260
551,3688,SPEEDWAY #2314,"I-94, EXIT 243 & SR-29",New Baltimore,MI,342,3.579,42.668440,-82.826260
552,3692,CHARLOTTE TRAVEL PLAZA,"I-77,  EXIT 16B",Charlotte,NC,46,3.53233333,35.320670,-80.847950
553,3699,WARREN TRAVEL PLAZA,"I-69, EXIT 278 & SR-5",Warren,IN,375,3.399,40.681000,-85.428280
554,3702,BEARS DEN TRADING POST #101,ST 37 11 MI E OF MASSENA,Hogansburg                              ,NY,39,3.649,44.934180,-74.905710
555,3707,SPEEDWAY #4704,"I-90, EXIT 154",Albert Lea,MN,425,3.299,43.685400,-93.422210
556,3718,SPEEDWAY #4706,"I-90, EXIT 265",Chamberlain,SD,455,3.299,43.819860,-99.324150
557,3719,KEYSTONE TRUCK STOP,US-22 & SR-164,Loretto,PA,14,3.999,41.579360,-79.427730
558,3725,GENEVA TRUCK STOP,"I-79, EXIT 35/141",Cochranton                              ,PA,240,3.81566666,41.539450,-80.183490
559,3728,PLAZA 23 TRUCK STOP,"I-787, EXIT 2",Albany,NY,12,3.799,42.633540,-73.763350
560,3737,JORDAN'S KWIK STOP #70,US-49,West Helena                             ,AR,435,3.399,34.554700,-90.698120
561,3745,PILOT TRAVEL CENTER #906-TOWN PUMP,"I-90, EXIT 408 & SR-78",Columbus,MT,780,3.58066666,45.640360,-109.246170
562,3759,EXXON,US-67 & SR-18,Newport,AR,695,4.13233333,35.638260,-91.252000
563,3767,SIMMONS TRAVEL CENTER,"I-95, EXIT 8 & US-301",Emporia,VA,180,3.099,36.690440,-77.540940
564,3772,Brake Time Corner Market,"I-25, EXIT 240",Burlington                              ,CO,800,3.499,39.298840,-102.257990
565,3774,SINCLAIR,"I-70, EXIT 438",Burlington                              ,CO,796,3.889,39.295850,-102.278740
566,3781,REATTA TRAVEL STOP,"I-76, EXIT 149 & SR-55/CR-81",Crook,CO,475,3.38233333,40.857140,-102.805180
567,3783,CIRCLE K #2744095,"I-25, EXIT 215",Denver,CO,800,3.299,39.362260,-104.867300
568,3794,SPEEDWAY #4701,"I-90, EXIT 73",Jackson,MN,425,3.299,43.639230,-94.999800
569,3817,FAST MARKET,"I-25, EXIT 158",Colorado Springs,CO,803,3.159,39.052160,-104.848560
570,3843,ONCUE EXPRESS #61,"I-35, EXIT 185 & US-77",Perry,OK,500,3.21566666,36.284590,-97.288220
571,3868,SHORE STOP #279,US-13,Greenwood,DE,194,3.239,38.811840,-75.585180
572,3868,SHORE STOP #279,US-13,Greenwood,DE,194,3.259,38.811840,-75.585180
573,3888,Fics Plaza,"I-90, EXIT 184",Deer Lodge                              ,MT,816,3.519,46.401630,-112.735060
574,3889,CIRCLE K #2701686,"I-75, EXIT 220",Bradenton,FL,225,3.439,27.451280,-82.579320
575,3907,SUNOCO,US-46 & SR-93,Palisades Park,NJ,105,3.279,40.843530,-74.004510
576,3908,SEMINOLE TRUCK STOP,"I-75, EXIT 354",Fort Lauderdale,FL,95,3.699,26.115440,-80.249530
577,3927,MICCOSUKEE SERVICE PLAZA,"I-75, EXIT 49 & SR-84",Fort Lauderdale                         ,FL,95,3.66566666,26.092780,-80.141030
578,3936,Uncle Petes Truck  Stop,"I-40, EXIT 239 & US-70/SR-26",Lebanon,TN,460,2.989,36.212040,-86.286740
579,3946,Fast Lane,US-24 & US-63,Moberly,MO,310,3.469,39.363600,-92.404440
580,3949,SUNSTOP #337,"I-10/SR-8, EXIT 303 & US-441",Lake City,FL,75,3.699,30.186420,-82.637130
581,3956,CIRCLE K #2707451,US-27/SR-25 & SR-70,Lake Placid,FL,225,3.399,27.296140,-81.358340
582,3964,SPEEDWAY #6604,"I-94, EXIT 66",Mattawan,MI,465,3.489,42.222480,-85.789960
583,3964,SPEEDWAY #6604,"I-94, EXIT 66",Mattawan,MI,465,3.499,42.222480,-85.789960
584,3970,EXXON - Pilot #1293,"I-30, EXIT 61",Garland,TX,630,2.84233333,32.845090,-96.582230
585,3973,LOVES TRAVEL STOP #205,"I-35 & I-44, EXIT 137",Oklahoma City,OK,483,3.319,35.338940,-97.492340
586,3974,LOVES TRAVEL STOP #201,I-40 EXIT 41,Elk City,OK,483,3.12566666,35.415580,-99.374470
587,3975,SUNSTOP #334,"I-10, EXIT 335 & SR-121",Macclenny,FL,75,3.459,30.286620,-82.124680
588,3979,PETRO GARY 369,"I-80 & I-94, EXIT 9",Gary,IN,365,3.83066666,41.569510,-87.362290
589,4006,MISSILE MART #1,US-167 & SR-7,El Dorado,AR,635,3.499,33.824020,-118.095550
590,4008,BALDWIN TRAVEL PLAZA,"I-94, EXIT 19 & US HWY 63",Baldwin                                 ,WI,295,3.503,44.865410,-92.374880
591,4025,BP,"I-85, EXIT 21  & US-178",Anderson,SC,30,2.909,34.447120,-82.393240
592,4035,PILOT TRAVEL CENTER #430,"I-40,  EXIT 84",Russellville,AR,695,3.375,35.284650,-93.095860
593,4035,PILOT TRAVEL CENTERS #430,"I-40,  EXIT 84",Russellville,AR,695,3.399,35.284650,-93.095860
594,4062,DUDLEYS TRUCK STOP RESTAURANT,US-220,Rocky Mount,VA,185,3.299,36.951920,-79.881710
595,4063,STUCKEY'S,"I-59, EXIT 67 & US-49",Hattiesburg,MS,620,2.999,31.354200,-89.348740
596,4080,SHELL DBA PILOT DEALER #874,US-41,Miami,FL,176,3.699,25.767260,-80.196780
597,4080,PILOT TRAVEL CENTERS #874,US-41,Miami,FL,176,3.699,25.767260,-80.196780
598,4101,E-Z MART #4411,HIGHWAY 69 & COBBLESTONE DR,Pryor,OK,560,3.099,36.251750,-95.335290
599,4113,ASAP GENERAL STORE #330,US-412/SR-15,Enid,OK,500,3.08233333,36.390880,-97.878140
600,4115,QUIKTRIP #707,"I-85 , EXIT 96",Atlanta,GA,18,3.34066666,33.889460,-84.262760
601,4119,JET FOOD STORE #82,US-441 & CR-13,Douglas,GA,10,3.44066666,42.735140,-105.621480
602,4156,PETRO STOPPING CENTER #305,"I-10, EXIT 582",San Antonio,TX,740,3.20733333,29.445050,-98.361190
603,4161,EL CHEAPO,I-95 & EXIT 76,Midway                                  ,GA,195,3.52566666,31.772300,-81.379680
604,4164,CIRCLE K #2723897,"I-75, EXIT 138",Thomasville,GA,20,3.23566666,30.816650,-83.739460
605,4169,TA KINGMAN TRAVEL CENTER,"I-40, EXIT 48 & US-93",Kingman,AZ,910,3.899,35.187060,-114.067480
606,4171,PETRO SERVE USA #11,US-2 & US-71,Bemidji,MN,355,3.499,47.420350,-94.863730
607,4172,FLYING J TRAVEL PLAZA #639,"I-90, EXIT 2",Post Falls,ID,970,3.76233333,47.707050,-117.007180
608,4179,CIRCLE K #2705352,"I-95/SR-405, EXIT 109 & SR-30/SR-21",Port Wentworth                          ,GA,195,3.099,32.198350,-81.198150
609,4187,FLYING J TRAVEL PLAZA #632,"I-75, EXIT 320",Resaca,GA,285,3.29566666,34.573480,-84.947960
610,4193,TIGER MART #63,"I-20, EXIT 454",Grand Prairie,TX,630,3.599,32.676730,-97.008000
611,4199,PWI #574,"I-70, EXIT 193/US-40",Bunker Hill,KS,357,2.959,38.877940,-98.706640
612,4204,PILOT TRAVEL CENTERS #415,"I-59, EXIT 4",Rising Fawn,GA,285,3.859,34.769020,-85.538640
613,4204,PILOT TRAVEL CENTER #415,"I-59, EXIT 4",Rising Fawn,GA,285,3.819,34.769020,-85.538640
614,4211,FLYING J #513,"I-15, EXIT 1",Jean,NV,910,3.73233333,35.608830,-115.390370
615,4220,KENNETT TRUCK STOP,"I-275, EXIT 16",Lawrenceburg                            ,IN,300,3.424,39.126590,-84.833740
616,4222,Circle K #4703906,"I-24, EXIT 24 & SR-49",Pleasant View,TN,460,2.899,36.404870,-87.030860
617,4223,TA PEMBROKE TRAVEL CENTER,"I-90, EXIT 48A",Corfu,NY,38,3.939,43.001340,-78.416200
618,4223,TA PEMBROKE TRAVEL CENTER,"I-90, EXIT 48A",Corfu,NY,38,3.889,43.001340,-78.416200
619,4223,TA PEMBROKE TRAVEL CENTER,"I-90, EXIT 48A",Corfu,NY,38,3.829,43.001340,-78.416200
620,4223,TA PEMBROKE TRAVEL CENTER,"I-90, EXIT 48A",Corfu,NY,38,3.839,43.001340,-78.416200
621,4227,LOVES TRAVEL STOP #203,"I-40, EXIT 140",Oklahoma City,OK,483,3.35566666,35.460630,-97.556780
622,4233,QUIKTRIP #7220,"I-20, EXIT 8",Shreveport,LA,745,2.89233333,32.446860,-93.903370
623,4239,SPEEDWAY #8256,"I-64, EXIT 94 & SR-1958 & US-60",Winchester,KY,410,2.92233333,37.992190,-84.177610
624,4241,EXXON,"I-285, EXIT 53",Conley,GA,18,3.999,33.670300,-84.334410
625,4267,CONOCO,US-30 & SR-41,Gap,PA,160,3.799,39.979480,-76.015860
626,4292,KUM & GO #0032,"I-80/US-6, EXIT 155 & SR-117",Colfax,IA,320,3.08233333,41.678390,-93.245670
627,4301,TIGER DISCOUNT TRUCKSTOP,"I-94, EXIT 64 & I-94 BUS",Dickinson,ND,807,3.51566666,46.890760,-102.835370
628,4311,Saveway Truck Plaza,"I-65, EXIT 164 & US-31",Hope Hull,AL,720,3.139,32.264050,-86.356790
629,4331,KWIK STOP C STORES,US-61/US-151,Dubuque,IA,335,3.559,42.473090,-90.667890
630,4332,PILOT TRAVEL CENTER #468,"I-57, EXIT 283 & US-24",Gilman,IL,280,3.399,40.766520,-87.990430
631,4332,PILOT TRAVEL CENTER #468,"I-57, EXIT 283 & US-24",Gilman,IL,280,3.559,40.766520,-87.990430
632,4332,PILOT TRAVEL CENTER #468,"I-57, EXIT 283 & US-24",Gilman,IL,280,3.439,40.766520,-87.990430
633,4332,PILOT TRAVEL CENTERS #468,"I-57, EXIT 283 & US-24",Gilman,IL,280,3.459,40.766520,-87.990430
634,4335,HIGHWAY 20  AUTO TRUCK PLAZA,US-20,Peosta,IA,335,3.489,42.440580,-90.830380
635,4339,ROAD RANGER #273,I-69E/US-77 & SR-107,Combes,TX,639,3.049,26.248460,-97.727980
636,4349,ROAD RANGER #144,"I-380, EXIT 68US-20, EXIT 68",Evansdale,IA,565,3.729,42.459440,-92.259490
637,4363,EL CHEAPO #4,"I-95, EXIT 87",Richmond Hill,GA,195,3.09566666,31.926370,-81.330720
638,4368,HOODS SERVICE CENTER,"I-44, EXIT 61",Bois D Arc,MO,535,3.074,37.185900,-93.572450
639,4372,GRADYS TRUCKSTOP,"I-16, EXIT 111",Pulaski                                 ,GA,195,3.46566666,37.062120,-80.781910
640,4373,KUM & GO #0043,"I-35, EXIT 43 & SR-207/CRG76",New Virginia,IA,320,3.114,41.180310,-93.726870
641,4389,TAYLOR QUIK-PIK,"I-29, EXIT 75 & US-30",Missouri Valley,IA,486,3.399,41.546060,-95.917390
642,4395,BREAK TIME #3147,"I-55, EXIT 67 & US-62",Sikeston,MO,275,3.499,36.956110,-89.533160
643,4417,TA MORIARITY TRAVEL CENTER,"I-40, EXIT 194",Moriarty,NM,580,3.21733333,35.016990,-106.076230
644,4419,CASEYS #3081,"I-35, EXIT 92 & US-136",Bethany,MO,400,3.06066666,40.261780,-94.012710
645,4427,CASEYS #2654,"I-80/US-6, EXIT 93 & CR-P28",Stuart,IA,320,3.099,41.496060,-94.406750
646,4431,CASEYS #2653,"US-63 & US-30, EXIT 202",Toledo,IA,320,3.349,41.996860,-92.581650
647,4437,UNDERWOOD TRUCK STOP I 80,"I-80, EXIT 17",Underwood                               ,IA,319,3.00066666,41.371100,-95.680750
648,4441,PILOT TRAVEL CENTERS #51,"I-81 BAILEYTON RD, EXIT 36",Greeneville,TN,405,3.56233333,36.174060,-82.825710
649,4442,Minuteman Food Mart #58,US-74/US-76,Delco,NC,245,3.50733333,34.316300,-78.236450
650,4445,TA Rogers,"I-94/US-52, EXIT 207 & SR-101",Rogers,MN,448,3.274,45.196860,-93.557450
651,4446,LOVES TRAVEL STOP #200,I-40 EXIT 74,Amarillo,TX,585,3.209,35.239620,-101.619450
652,4451,PRAIRIE JUNCTION TRUCK STOP,"I-29, EXIT 109 & SR-34",Colman,SD,530,3.099,43.979100,-96.814300
653,4452,CASEYS #2867,US-63 & US-20,Waterloo,IA,380,3.499,42.499600,-92.343820
654,4458,KUM & GO #1443,"I-80, EXIT 216",Williamsburg,IA,380,3.13066666,41.687220,-92.005900
655,4460,EXIT 62 TRUCKSTOP,"I-71, EXIT 62 & US-127",Glencoe,KY,415,3.16566666,38.714000,-84.822960
656,4463,QUIKTRIP #7901,"I-20, EXIT 556 & US-69",Lindale,TX,710,2.80733333,32.510570,-95.408710
657,4482,FLYING J TRAVEL PLAZA #777,"I-84, EXIT 54(FEDERAL WAY)",Boise,ID,785,3.809,43.388040,-116.000240
658,4482,FLYING J FUEL STOP #777,"I-84, EXIT 54(FEDERAL WAY)",Boise,ID,785,3.76566666,43.388040,-116.000240
659,4492,3 MILE CORNER TRUCK STOP,US-2 & US-95,Bonners Ferry,ID,970,3.734,48.731260,-116.299990
660,4525,STINKER #42,US-12/US-95 & SR-128,Lewiston,ID,970,3.69733333,46.421490,-117.030660
661,4528,WENATCHEE VALLEY TRUCK STOP,US-97 ALT,Wenatchee,WA,920,4.199,47.551720,-120.284190
662,4528,WENATCHEE VALLEY TRUCK STOP,US-97 ALT,Wenatchee,WA,920,4.119,47.551720,-120.284190
663,4528,WENATCHEE VALLEY TRUCK STOP,US-97 ALT,Wenatchee,WA,920,4.089,47.551720,-120.284190
664,4533,SPEEDWAY #1449,"I-65, EXIT 262B",Birmingham                              ,AL,615,2.97566666,33.543890,-86.826900
665,4544,BIG CHARLIES TRUCK PLAZA,"I-64, EXIT 282 & US-13",Virginia Beach,VA,130,3.489,36.889030,-75.990300
666,4555,PILOT TRAVEL CENTERS #406,"I-65, EXIT 22 & US-31A/SR-11",Cornersville,TN,460,3.799,32.993200,-95.339990
667,4560,FAST STOP TRAVEL CENTERS #1109,"I-15, EXIT 392",Plymouth,UT,835,3.58233333,41.891750,-112.170750
668,4563,PILOT TRAVEL CENTERS #299,"I-55/I-74/US-51, EXIT 160 & US-150/SR-9",Bloomington                             ,IL,280,3.599,40.479210,-88.992630
669,4563,PILOT TRAVEL CENTERS #299,"I-55/I-74/US-51, EXIT 160 & US-150/SR-9",Bloomington                             ,IL,280,3.399,40.479210,-88.992630
670,4563,PILOT TRAVEL CENTER #299,"I-55/I-74/US-51, EXIT 160 & US-150/SR-9",Bloomington                             ,IL,280,3.399,40.479210,-88.992630
671,4563,PILOT TRAVEL CENTERS #299,"I-55/I-74/US-51, EXIT 160 & US-150/SR-9",Bloomington                             ,IL,280,3.499,40.479210,-88.992630
672,4563,PILOT TRAVEL CENTER #299,"I-55/I-74/US-51, EXIT 160 & US-150/SR-9",Bloomington                             ,IL,280,3.499,40.479210,-88.992630
673,4563,PILOT TRAVEL CENTER #299,"I-55/I-74/US-51, EXIT 160 & US-150/SR-9",Bloomington                             ,IL,280,3.599,40.479210,-88.992630
674,4568,ONVO TRAVEL PLAZA,"I-90, EXIT 28",Fultonville,NY,12,3.199,42.945550,-74.364460
675,4568,ONVO TRAVEL PLAZA,"I-90, EXIT 28",Fultonville,NY,12,3.159,42.945550,-74.364460
676,4569,METROPOLIS TRUCK STOP,"I-24, EXIT 37 & US-45",Metropolis,IL,490,3.599,37.156370,-88.682550
677,4574,Circle K #4701432,"I-74, EXIT 174",Mahomet,IL,280,3.669,40.188600,-88.369710
678,4582,BIG CHIEF TRUCK STOP,"I-94/US-52, EXIT 61 & US-59/CR-82",Fergus Falls,MN,250,3.23566666,46.195300,-96.019290
679,4605,PILOT DEALER #898 SADLERS TRUCK STOP,"I-95, EXIT 11B & US-58",Emporia,VA,180,3.799,36.707200,-77.561130
680,4618,OUTPOST TRAVEL CENTER,"I-20, EXIT 5 & US-80",Greenwood,LA,745,2.899,32.444550,-93.955170
681,4620,PILOT TRAVEL CENTERS #95,"I-75, EXIT 329 & SR-44",Wildwood                                ,FL,225,3.22566666,28.875160,-82.097740
682,4620,PILOT TRAVEL CENTER #95,"I-75, EXIT 329 & SR-44",Wildwood                                ,FL,225,3.319,28.875160,-82.097740
683,4622,TA LEE HI TRAVEL PLAZA,"I-81,  EXIT 195",Lexington,VA,185,3.659,37.838210,-79.367970
684,4628,QUARLES #4601,US-29/US-17/US-15,Warrenton,VA,60,3.32233333,38.654320,-77.800560
685,4637,THORNTONS #369 DBA PILOT TRAVEL CENTER #514,"I-55, EXIT 126 & SR-10",Lincoln                                 ,IL,318,3.399,40.156590,-89.364580
686,4637,THORNTONS #369 DBA PILOT TRAVEL CENTER #514,"I-55, EXIT 126 & SR-10",Lincoln                                 ,IL,318,3.499,40.156590,-89.364580
687,4637,PILOT TRAVEL CENTER #514 - THORNTONS #369,"I-55, EXIT 126 & SR-10",Lincoln                                 ,IL,318,3.499,40.156590,-89.364580
688,4637,PILOT TRAVEL CENTER #514 - THORNTONS #369,"I-55, EXIT 126 & SR-10",Lincoln                                 ,IL,318,3.399,40.156590,-89.364580
689,4642,MARSHAL JUNCTION,"I-70, EXIT 147 & SR-1",Marshall                                ,IL,510,3.199,39.479040,-87.681820
690,4642,MARSHAL JUNCTION,"I-70, EXIT 147 & SR-1",Marshall                                ,IL,510,3.399,39.479040,-87.681820
691,4644,CIRCLE K #4706703,"I-80, EXIT 145A",Mokena,IL,290,3.399,41.552270,-87.895710
692,4644,CIRCLE K #4706703,"I-80, EXIT 145A",Mokena,IL,290,3.339,41.552270,-87.895710
693,4654,7-ELEVEN #35087,"I-490, EXIT 2 & SR-33 & SR-19",Bergen,NY,190,4.029,38.890370,-77.031960
694,4655,QUICKLEES TRAVEL CENTER,"I-86, EXIT 30 & CR-20",Belmont,NY,190,3.999,34.531600,-88.220310
695,4690,PWI #401,"I-20 & I-30, EXIT 1B",Aledo,TX,630,2.799,32.720850,-97.540030
696,4700,A C TRUCKSTOP,"I-80, EXIT 290",Laramie                                 ,WY,795,3.079,41.314610,-105.593230
697,4704,THE RIDGE,"I-68/US-219, EXIT 14 & US-40",Accident,MD,165,4.199,39.693710,-79.257430
698,4707,SMITHTON TRUCKSTOP,"I-70, EXIT 39 & SR-3059",Smithton,PA,165,3.899,40.169960,-79.728090
699,4729,MINIT MART #600244,"I-70, EXIT 131",Straughn,IN,457,3.859,39.851980,-85.269810
700,4742,FLYING J TRAVEL PLAZA #684,"I-94, EXIT 1 & SR-16",Beach,ND,807,3.96566666,46.933760,-104.007680
701,4750,BROOKE TRAVEL PLAZA,"I-80, EXIT 259",West Liberty,IA,380,2.98733333,41.663460,-91.245340
702,4762,TA MONROE TRAVEL CENTER,"I-75, EXIT 15",Monroe,MI,325,3.349,41.922890,-83.360920
703,4762,TA MONROE TRAVEL CENTER,"I-75, EXIT 15",Monroe,MI,325,3.249,41.922890,-83.360920
704,4762,TA MONROE TRAVEL CENTER,"I-75, EXIT 15",Monroe,MI,325,3.369,41.922890,-83.360920
705,4762,TA MONROE TRAVEL CENTER,"I-75, EXIT 15",Monroe,MI,325,3.299,41.922890,-83.360920
706,4806,TRACK AND TRAVEL,"I-20, EXIT 406",Weatherford,TX,630,2.91733333,32.730770,-97.782540
707,4818,PILOT TRAVEL CENTER #350,"I-84 & US-20, EXIT 95",Mountain Home,ID,785,3.799,43.137770,-115.700580
708,4818,PILOT TRAVEL CENTERS #350,"I-84 & US-20, EXIT 95",Mountain Home,ID,785,3.759,43.137770,-115.700580
709,4819,Alta Convenience #6333,"I-25, EXIT 11",Trinidad,CO,803,3.399,37.131220,-104.521080
710,4826,I-20 Truck Stop,"I-20, EXIT 165",Lincoln,AL,615,2.999,33.591870,-86.165830
711,4827,PETRO BEAUMONT #304,"I-10, EXIT 848",Beaumont,TX,610,3.33066666,30.089290,-94.135650
712,4837,SHELL,US-10 & SR-210,Motley,MN,522,3.399,46.340950,-94.646170
713,4856,PILOT TRAVEL CENTER #910- TOWN PUMP,"I-90, EXIT 274 & US-287",Three Forks,MT,786,3.59733333,45.918200,-111.602350
714,4858,PILOT TRAVEL CENTER #1346,"I-135, EXIT 31",Newton,KS,570,3.3115,38.054400,-97.322660
715,4858,PILOT DEALER #1346,"I-135, EXIT 31",Newton,KS,570,3.409,38.054400,-97.322660
716,4860,PILOT TRAVEL CENTER #476,"I-74, EXIT 32 & SR-17",Woodhull,IL,270,3.899,41.176900,-90.315910
717,4860,PILOT TRAVEL CENTERS #476,"I-74, EXIT 32 & SR-17",Woodhull,IL,270,3.899,41.176900,-90.315910
718,4872,TA COMMERCE TRAVEL CENTER,"I-85, EXIT 149 & US-441",Commerce,GA,16,3.21566666,34.181450,-83.441820
719,4874,PWI #110,"I-20, EXIT 112 & FM-1936",Odessa,TX,710,3.049,31.813660,-102.429410
720,4878,SHELL DBA ONE9 #1426,"I-84, EXIT 35",Nampa                                   ,ID,785,3.374,43.609640,-116.596100
721,4881,PETRO STOPPING CENTER #14,"I-295, EXIT 56",Bordentown,NJ,230,4.029,40.122330,-74.718340
722,4885,LOVES TRAVEL STOP #384,"I-70, EXIT 45",Greenville,IL,540,3.689,38.871010,-89.385430
723,4885,LOVES TRAVEL STOP #384,"I-70, EXIT 45",Greenville,IL,540,3.749,38.871010,-89.385430
724,4885,LOVES TRAVEL STOP #384,"I-70, EXIT 45",Greenville,IL,540,3.689,38.871010,-89.385430
725,4885,LOVES TRAVEL STOP #384,"I-70, EXIT 45",Greenville,IL,540,3.689,38.871010,-89.385430
726,4885,LOVES TRAVEL STOP #384,"I-70, EXIT 45",Greenville,IL,540,3.689,38.871010,-89.385430
727,4885,LOVES TRAVEL STOP #384,"I-70, EXIT 45",Greenville,IL,540,3.749,38.871010,-89.385430
728,4887,SUNOCO,"I-80 & I-90, EXIT 3",Wauseon                                 ,OH,550,3.699,41.586630,-84.147080
729,4894,CLOVERDALE TRAVEL PLAZA,"I-70, EXIT 41 & US-231",Cloverdale,IN,375,3.699,39.510860,-86.794260
730,4905,HY-MILER #2204,SR-250,Sandusky,OH,550,3.53233333,41.943300,-80.558820
731,4909,CIRCLE K #2723916,US-441/US-301/US/27/SR-500,Ocala,FL,140,3.459,29.189490,-82.140350
732,4910,PILOT TRAVEL CENTER #892,"I-70 EXIT 164, & US-50",Green River,UT,835,3.68566666,38.995480,-110.163220
733,4918,PILOT TRAVEL CENTERS #219,"I-40, EXIT 398",Knoxville,TN,405,3.699,36.002710,-83.780090
734,4920,TA LAPLACE,"I-10, EXIT 209 & US-5",La Place,LA,600,3.22733333,30.089960,-90.447210
735,4921,PILOT TRAVEL CENTERS #231,"I-75, EXIT 29",Corbin,KY,410,3.609,36.972810,-84.111440
736,4927,CIRCLE K #2704886,"I-65, EXIT 205 & US-31/SR-22",Clanton,AL,720,3.20733333,32.839380,-86.631200
737,4933,VILLAGE TRUCK STOP,"I-81, EXIT 18",Rural Retreat                           ,VA,185,3.299,36.892940,-81.275860
738,4977,KWIK TRIP #331,SR-54,Wisconsin Rapids,WI,395,3.26233333,44.403850,-89.796960
739,4981,JOHNNYS MARKET,"I-94, EXIT 110 & US-27",Marshall,MI,385,3.499,42.272050,-84.959370
740,4983,KWIK TRIP #603,"I-94, EXIT 28 & SR-128",Wilson,WI,451,3.549,44.872540,-92.197340
741,4996,ZIP TRIP #54,"I-90, EXIT 452",Billings,MT,780,3.59066666,45.795010,-108.461570
742,5003,TRAILWAY TRUCK STOP,US-301/SR-304,Centreville                             ,MD,22,3.259,39.047640,-76.068320
743,5006,SUNOCO,US-1/US-9,Linden,NJ,79,3.799,40.626820,-74.243090
744,5024,I 55 MOTOR PLAZA,"I-55,  EXIT 180",Pevely,MO,540,2.99066666,38.283910,-90.403220
745,5030,YESWAY #1030,US-63 & E MARY ST,Ottumwa,IA,320,3.399,40.994610,-92.403850
746,5044,TA MOUNT VERNON TRAVEL CENTER,"I-44, EXIT 46 & SR-39/SR265",Mount Vernon,MO,535,3.409,37.092980,-93.802590
747,5050,ROCK PORT TRUCK PLAZA,"I-29 & US-136, EXIT 110",Rock Port,MO,400,3.099,40.416880,-95.514940
748,5056,TREX MART #16,"I-35, EXIT, 61 & US-69",Winston,MO,276,3.119,39.850740,-94.177910
749,5057,PHILLIPS 66,"I-35, EXIT 54 & I-35 BUS/US-36",Cameron,MO,276,3.099,39.749990,-94.220230
750,5060,CRAZY FREDS TRUCK SHOP,"I-40, EXIT 44 & US-66",Kingman,AZ,910,3.539,35.131740,-114.105210
751,5064,CLARK OIL #44,"I-59, EXIT 97",Laurel                                  ,MS,620,2.879,31.694890,-89.117100
752,5079,FASTLANE TAYLOR 63,US-61 & SR-6,Taylor,MO,494,3.01566666,39.932270,-91.521940
753,5085,K AN T TRUCKSTOP,"I-79, EXIT 137 & SR-310",Fairmont,WV,165,3.399,39.482490,-80.136480
754,5111,CIRCLE K #2723385,"I-59, EXIT 67 & US-49/SR-42",Hattiesburg,MS,620,3.149,31.357190,-89.346980
755,5117,CIRCLE K #4702361,"I-65, EXIT 130 & SR-334",Whitestown,IN,375,3.29233333,39.946880,-86.354600
756,5128,CASEYS #2769,"I-80, EXIT 220 & SR-149",Williamsburg,IA,380,3.14233333,41.664010,-92.007330
757,5131,TRAILS END TRUCK STOP,"I-29, EXIT 110 & US-136",Rock Port,MO,486,3.40566666,40.416880,-95.514940
758,5132,Travel Centers of America,"I-44, EXIT 208 & SR-19",Cuba,MO,574,3.26566666,38.063740,-91.403850
759,5160,FUEL MART #727,"I-70, EXIT 193",Quaker City                             ,OH,249,3.16566666,40.054050,-81.321380
760,5163,Blue Sky #733,"US-78, EXIT 81 & SR-178",Belden,MS,742,2.939,34.353130,-88.824860
761,5165,ONE9 #046,"I-65, EXIT 6 & SR-100",Franklin,KY,415,3.08566666,36.713530,-86.523120
762,5167,SPEEDWAY #7575,"I-65, EXIT 255",Hobart,IN,290,3.63233333,41.537390,-87.310730
763,5170,FLYING J #516,"I-76, EXIT 161 & I-70",Breezewood,PA,14,5.099,39.986510,-78.261710
764,5183,PETRO STOPPING CENTER #74,I-95 & EXIT 106,Kenly,NC,205,3.709,35.576010,-78.150840
765,5191,NORTH POINT PLAZA,"I-90 & I-94, EXIT 115",Poynette,WI,420,3.17233333,43.391860,-89.467050
766,5202,Chevron #306185,US-30,Montpelier,ID,825,3.699,42.319830,-111.297830
767,5203,OASIS TRAVEL CENTER,"I-10, EXIT 53",Robertsdale,AL,715,3.469,30.628760,-87.611380
768,5207,JJ TRAVEL PLAZA,"I-70, EXIT 70 & US-83",Oakley,KS,525,3.61566666,39.133460,-100.868200
769,5227,PILOT TRAVEL CENTERS #900,"I-95, EXIT 75",Dunn,NC,205,3.709,35.315850,-78.575650
770,5230,ONE9 #496,"I-80, EXIT 265",Atalissa,IA,270,3.01566666,41.646020,-91.147110
771,5232,CM EUNICE,US-190,Eunice,LA,730,3.399,30.494860,-92.404390
772,5234,SINCLAIR,SR-37,Monett,MO,277,3.29066666,36.924250,-93.927560
773,5236,FLYING J #875,"I-95,  EXIT 109",Elkton,MD,243,4.199,39.641570,-75.868770
774,5245,CASEYS #3842,US-36 & US-283,Norton,KS,357,3.15733333,40.001450,-99.890640
775,5247,EDGERTON TRAVEL PLAZA,"I-90, EXIT 160 & US-51",Edgerton,WI,420,3.199,42.863700,-89.058060
776,5249,Taylor's Stateline Travel Center,US-67 & SR-278,Neelyville,MO,275,2.999,36.498460,-90.495810
777,5254,TA CANDLER TRAVEL CENTER,"I-40, EXIT 37",Candler,NC,210,3.799,35.541230,-82.758790
778,5255,7-ELEVEN #35788,"I-35, EXIT 215",Olathe,KS,400,3.339,38.851470,-94.820200
779,5258,PT TRUCK STOP,"I-12, EXIT 42",Hammond                                 ,LA,623,3.249,30.478840,-90.417890
780,5282,CASEYS #3548,US-54 & US-61,Pratt,KS,357,3.14066666,37.646020,-98.739280
781,5285,TULLO TRUCK STOP,"I-95, EXIT 15E & US-1/US-9",Kearny,NJ,79,3.799,40.755650,-74.105530
782,5297,ERNIES TRUCK STOP,"I-90,  EXIT 179 & I-90 BUS/SR-17",Moses Lake,WA,920,3.999,47.131960,-119.277100
783,5297,ERNIES TRUCK STOP,"I-90,  EXIT 179 & I-90 BUS/SR-17",Moses Lake,WA,920,3.949,47.131960,-119.277100
784,5297,ERNIES TRUCK STOP,"I-90,  EXIT 179 & I-90 BUS/SR-17",Moses Lake,WA,920,4.179,47.131960,-119.277100
785,5299,Sudden Service #62,"I-65, EXIT 6 & SR-100",Franklin,KY,460,3.084,36.713530,-86.523120
786,5302,ONE9 #258,"I-81, EXIT 150 & US-220 ALT & US-11",Troutville,VA,185,3.03233333,37.388480,-79.904730
787,5306,PILOT TRAVEL CENTERS #11,"I-76, EXIT 232",North Lima                              ,OH,573,3.799,40.964540,-80.651540
788,5309,NEWBORN TRUCK STOP,I-20 EXIT 5,Tallapoosa,GA,48,3.40733333,33.683420,-85.266680
789,5310,FLYING J #576,"I-35, EXIT 69",Northfield,MN,515,3.859,44.467960,-93.292160
790,5324,HY-MILER #2245,SR-53,Fremont,OH,550,3.38233333,41.290650,-83.171180
791,5341,KWIK STAR #1160,"US-75, EXIT 118 & SR-3",Le Mars,IA,408,3.299,42.794960,-96.159040
792,5349,JET FOOD STORE #17,US-1/SR=4/SR-540 & US-220/SR-47,Wrens,GA,135,3.41566666,33.209050,-82.387560
793,5363,SPEEDWAY #6767,"I-75, EXIT 20",Manheim,PA,70,4.499,40.674680,-76.218130
794,5389,FLYING J TRAVEL PLAZA #744,"I-15, EXIT 343",Ogden,UT,835,3.749,41.224350,-112.011260
795,5391,PWI #605,"I-10, EXIT 378",San Simon,AZ,640,2.959,32.269850,-109.244930
796,5399,FLYING J TRAVEL PLAZA #750,"I-81 & I-77, EXIT 80",Max Meadows,VA,185,3.549,36.945190,-80.952020
797,5407,CASEYS #4535,US 81,Concordia                               ,KS,570,2.91233333,39.702270,-97.658790
798,5414,One9 #1216,"I-10 ,EXIT 200 & SR-84",Eloy,AZ,930,3.199,32.750320,-111.552180
799,5414,Pride Travel Center dba One9 #1216,"I-10 ,EXIT 200 & SR-84",Eloy,AZ,930,3.199,32.750320,-111.552180
800,5419,USA TRAVEL CENTER,"I-40, EXIT 48 & US-93",Kingman,AZ,910,3.399,35.187060,-114.067480
801,5422,K AND H TRUCK PLAZA,"I-57, EXIT 283 & US-24",Gilman,IL,290,3.159,40.766520,-87.990430
802,5422,K AND H TRUCK PLAZA,"I-57, EXIT 283 & US-24",Gilman,IL,290,3.099,40.766520,-87.990430
803,5424,WK TRUCK STOP,"US-231 & SR-9001, EXIT 75",Beaver Dam,KY,340,3.399,37.390460,-86.866750
804,5435,MEADE AUTO AND TRUCK PLAZA,US-54,Meade                                   ,KS,525,3.799,37.285480,-100.344930
805,5436,PARKWAY MARATHON,"US-79, EXIT 94",Caneyville,KY,415,3.73233333,37.423490,-86.489170
806,5446,PETRO STOPPING CENTER #308,"I-20, EXIT 8 & SR-526",Shreveport,LA,745,3.17566666,32.446860,-93.903370
807,5462,BOOZER KWIK STOP,"I-15, EXIT 118",Idaho Falls                             ,ID,825,3.44733333,43.489200,-112.040360
808,5464,PILOT TRAVEL CENTERS #48,"I-65, EXIT 86",Glendale,KY,415,3.609,37.589080,-85.870140
809,5474,One9 #88,"I-95/SR-9, EXIT 201 & SR-520",Cocoa,FL,143,3.37566666,28.356450,-80.726390
810,5477,CHEVRON #383766,"I-5, EXIT 216",Halsey,OR,935,3.099,44.385720,-123.061090
811,5479,PILOT TRAVEL CENTERS #94,"I-75, EXIT 161",Punta Gorda,FL,225,3.799,26.899120,-82.006360
812,5479,PILOT TRAVEL CENTER #94,"I-75, EXIT 161",Punta Gorda,FL,225,3.799,26.899120,-82.006360
813,5491,49ER FUEL CENTER,"I-75, EXIT 49",East Bernstadt                          ,KY,410,2.999,37.228670,-84.219620
814,5492,BFS FOODS #68,"I-70, EXIT 3",Hancock                                 ,MD,22,4.129,39.696310,-78.152110
815,5522,ONE9 #301,"I-55,  EXIT 40",Marston,MO,275,3.109,36.516150,-89.601900
816,5523,TA LIMON TRAVEL CENTER,"I-70, EXIT 359 & US-24",Limon,CO,800,3.92066666,39.262950,-103.680700
817,5529,FLYING J #549,"I-77, EXIT 100 & 101",Mount Airy,NC,65,3.599,36.479170,-80.752370
818,5537,HUCKS TRAVEL CENTER #51 DBA FLYING J #889,"I-57/I-64, EXIT 95 & SR-15",Mount Vernon,IL,574,3.459,38.317530,-88.889680
819,5537,HUCKS TRAVEL CENTER #51 dba FLYING J #889,"I-57/I-64, EXIT 95 & SR-15",Mount Vernon,IL,574,3.499,38.317530,-88.889680
820,5537,HUCKS TRAVEL CENTER #51 DBA FLYING J #889,"I-57/I-64, EXIT 95 & SR-15",Mount Vernon,IL,574,3.359,38.317530,-88.889680
821,5537,HUCKS TRAVEL CENTER #51 DBA FLYING J #889,"I-57/I-64, EXIT 95 & SR-15",Mount Vernon,IL,574,3.599,38.317530,-88.889680
822,5537,HUCKS TRAVEL CENTER #51 dba FLYING J #889,"I-57/I-64, EXIT 95 & SR-15",Mount Vernon,IL,574,3.399,38.317530,-88.889680
823,5554,Southfork TRUCK STOP,"I-30, EXIT 63 & SR-53",Gurdon,AR,635,3.459,33.900580,-93.300520
824,5560,MIDWAY TRAVEL PLAZA,I-70 EXIT 121 & US-40,Columbia,MO,310,3.539,38.964900,-92.336050
825,5569,TA EXPRESS NORWOOD #0450,US-60,Norwood,MO,535,3.449,37.118660,-92.385560
826,5570,PETRO STOPPING CENTER #310,"I-12, EXIT 40 & US-51 BUS",Hammond,LA,725,3.249,30.479120,-90.452750
827,5579,SAPP BROS TRAVEL CENTER,US-30,Columbus,NE,486,3.219,41.423500,-97.368200
828,5592,TA COLUMBIA NORTH,"I-20, EXIT 71 & US-21",Columbia,SC,46,3.439,33.986810,-81.050580
829,5597,CM LAKE CHARLES FUEL STOP 36,"I-10, EXIT 36 & SR-397",Lake Charles,LA,690,3.299,30.246890,-93.174760
830,5601,BP,"I-24, EXIT 16",Paducah,KY,490,3.429,36.994210,-88.511670
831,5603,TA NORTH CANTON TRAVEL CENTER,"I-77, EXIT 111",North Canton,OH,249,3.624,40.876140,-81.430940
832,5606,FLYING J #511,"I-94, EXIT 147",Mandan,ND,273,3.95233333,46.826520,-100.888970
833,5607,RICE MART,"I-45 & FM 1603, EXIT 238",Rice,TX,630,3.019,32.243450,-96.495390
834,5608,SHOP A LOTT  #3,US-84 & US-171,Mansfield                               ,LA,766,3.13566666,32.076760,-93.512000
835,5613,CHEVRON #381108,"I-82, EXIT 36",Yakima,WA,925,3.999,46.567920,-120.472200
836,5618,MCCLURE OIL #52,"I-65/US-52, EXIT 140 & SR-32",Lebanon                                 ,IN,375,3.584,40.047580,-86.467270
837,5649,Fast Stop,"I-10, EXIT 182 & SR-22",Sorrento                                ,LA,623,3.699,30.173730,-90.882240
838,5651,LOVES TRAVEL STOP #303,"I-64, EXIT 43 & SR-395",Waddy,KY,415,3.749,38.178360,-85.067250
839,5659,TEX-BEST #526,US-59 & US-281,George West,TX,625,3.299,28.111270,-98.321100
840,5660,Pride Convenience Store,"I-90, EXIT 51 & I-291",Chicopee,MA,100,3.509,42.161400,-72.541890
841,5661,TA Express #287,"I-40, EXIT 288 & SR-111",Cookeville,TN,460,3.299,36.133220,-85.480000
842,5667,PILOT TRAVEL CENTERS #393,"I-40, EXIT 24 & SR-209",Waynesville                             ,NC,210,3.759,35.524710,-82.958220
843,5669,KWIK TRIP #497,I-90 EXIT 266 & CR-12,Dakota,MN,515,3.474,43.928520,-91.435640
844,5670,TA MOUNT VERNON TRAVEL CENTER,"I-57 & I-64, EXIT 95",Mount Vernon,IL,574,3.449,38.317770,-88.954120
845,5670,TA MOUNT VERNON TRAVEL CENTER,"I-57 & I-64, EXIT 95",Mount Vernon,IL,574,3.499,38.317770,-88.954120
846,5670,TA MOUNT VERNON TRAVEL CENTER,"I-57 & I-64, EXIT 95",Mount Vernon,IL,574,3.539,38.317770,-88.954120
847,5674,TA MADISON TRAVEL CENTER,"I-20, EXIT 114 & US-441",Madison,GA,16,3.89066666,33.595910,-83.467700
848,5677,YESWAY #1178,CR-13,Kadoka,SD,506,3.189,43.843850,-101.502540
849,5691,Pilot Travel Center #666,"I-94, EXIT 30",Benton Harbor,MI,465,3.059,42.115930,-86.455830
850,5700,BEACON & BRIDGE #18,US-131 BUS,Big Rapids,MI,456,3.559,43.685590,-85.520020
851,5700,BEACON & BRIDGE #18,US-131 BUS,Big Rapids,MI,456,3.319,43.685590,-85.520020
852,5700,BEACON & BRIDGE #18,US-131 BUS,Big Rapids,MI,456,3.339,43.685590,-85.520020
853,5718,TOOT N TOTUM #104,US-287,Dalhart,TX,585,3.199,34.861430,-100.218360
854,5721,TA BALTIMORE SOUTH TRAVEL CENTER,"I-95, EXIT 41A & SR-175 & US-1",Jessup,MD,22,4.599,39.169090,-76.783300
855,5729,MENOMONIE FARMERS UNION,"I-94, EXIT 45 & CR-B",Menomonie,WI,295,3.649,44.904900,-91.861530
856,5730,SCOTTS QUICK STOP,SR-53 & SR-46,Marlette,MI,342,3.399,43.328580,-83.079890
857,5739,PILOT TRAVEL CENTERS #284,"I-75, EXIT 18",Monroe                                  ,MI,325,3.399,41.959990,-83.353770
858,5739,PILOT TRAVEL CENTERS #284,"I-75, EXIT 18",Monroe                                  ,MI,325,3.299,41.959990,-83.353770
859,5739,PILOT TRAVEL CENTERS #284,"I-75, EXIT 18",Monroe                                  ,MI,325,3.559,41.959990,-83.353770
860,5739,PILOT TRAVEL CENTERS #284,"I-75, EXIT 18",Monroe                                  ,MI,325,3.249,41.959990,-83.353770
861,5739,PILOT TRAVEL CENTERS #284,"I-75, EXIT 18",Monroe                                  ,MI,325,3.439,41.959990,-83.353770
862,5751,TA LAKE PARK TRAVEL CENTER,"I-75,  EXIT 2",Lake Park,GA,20,3.31566666,30.648140,-83.193460
863,5754,ROAD TRIP OASIS PERRY,"I-69, EXIT 105 & SR-52",Perry,MI,406,3.799,42.838670,-84.228520
864,5754,ROAD TRIP OASIS PERRY,"I-69, EXIT 105 & SR-52",Perry,MI,406,3.699,42.838670,-84.228520
865,5758,SPEEDY Q MARKET #8206,"I-94, EXIT 274",Port Huron                              ,MI,325,3.899,42.977090,-82.424200
866,5770,Kwik Trip # 1281,"I-43, EXIT 107",Belgium                                 ,WI,444,3.25566666,43.495390,-87.831030
867,5771,DUNES AUTO TRUCK PLAZA,"I-94, EXIT 12",Sawyer,MI,465,3.499,41.885110,-86.601370
868,5771,DUNES AUTO TRUCK PLAZA,"I-94, EXIT 12",Sawyer,MI,465,3.599,41.885110,-86.601370
869,5774,PJ TRAVEL PLAZA,"I-80, EXIT 192 & SR-880",Loganton,PA,138,3.479,41.053600,-77.211390
870,5780,BILLS TRUCKSTOP,"I-85, EXIT 86                 ",Linwood                                 ,NC,65,3.449,35.735360,-80.371340
871,5799,STAPLES OIL,"I-90, EXIT 146",Alden,MN,425,3.299,43.666100,-93.582880
872,5801,TA WYTHEVILLE TRAVEL CENTER,"I-81, EXIT 72 & I-77, EXIT 41",Wytheville,VA,185,3.519,36.959710,-81.062560
873,5821,TA PORTLAND TRAVEL CENTER,"I-5,  EXIT 278",Aurora,OR,935,4.03233333,45.231770,-122.809200
874,5823,ENMARKET #863,"I-95, EXIT 8 & SR-88",Hardeeville,SC,195,3.08233333,32.273170,-81.080790
875,5830,115 TRUCKSTOP #5001,"I-94, EXIT 115",Marshall,MI,431,3.429,42.272050,-84.959550
876,5830,115 TRUCKSTOP #5001,"I-94, EXIT 115",Marshall,MI,431,3.499,42.272050,-84.959550
877,5830,115 TRUCKSTOP #5001,"I-94, EXIT 115",Marshall,MI,431,3.589,42.272050,-84.959550
878,5842,PETRO STOPPING CENTER #6367,"I-57,  EXIT 335",Monee,IL,290,3.459,41.422860,-87.759520
879,5842,PETRO STOPPING CENTER #6367,"I-57,  EXIT 335",Monee,IL,290,3.499,41.422860,-87.759520
880,5842,PETRO STOPPING CENTER #6367,"I-57,  EXIT 335",Monee,IL,290,3.399,41.422860,-87.759520
881,5860,SPEEDWAY #4610,"I-35, EXIT 59 & SR-21",Faribault,MN,448,3.759,44.319880,-93.299220
882,5873,SOUTHERN VALLEY COOP,ST 14 BYPASS,Mankato                                 ,MN,425,3.499,44.182250,-93.968520
883,5901,ROTHSAY TRUCK STOP,"I-94, EXIT 38",Rothsay,MN,341,3.209,46.484540,-96.284700
884,5903,Circle K #2746447,I-94/US-52 EXIT 127 & US-71/SR-28,Sauk Centre,MN,250,3.189,45.742790,-94.952060
885,5907,SPEEDWAY #4035,CR-101,Shakopee,MN,448,3.599,44.800240,-93.513610
886,5909,SINCLAIR,"I-90, EXIT 233",Saint Charles,MN,515,3.529,43.952140,-92.070420
887,5927,HARRISONBURG TRAVEL CENTER,"I-81,  EXIT 243 & US-11",Harrisonburg,VA,185,2.899,38.451930,-78.869960
888,5935,WESTHAMPTON VALERO,I-295 EXIT 47A,Mount Holly                             ,NJ,160,3.329,40.011430,-74.849290
889,5942,EXPRESS MART TRUCK STOP,"I-55, EXIT 185 & US-67/US-61",Barnhart,MO,540,2.99733333,38.353310,-90.393200
890,5944,LAKE MILLS TRAVEL PLAZA,"I-94, EXIT 259 & SR- 89/CR-G",Lake Mills,WI,420,3.36066666,43.080990,-88.911860
891,5946,PILOT TRAVEL CENTERS #918,I-90 EXIT 55,Rapid City,SD,506,3.999,44.078350,-103.216890
892,5949,EXXON,US-59 & LOOP 151,Texarkana                               ,TX,723,3.16566666,33.362840,-94.129130
893,5951,ROAD RANGER #157,I-64 EXIT 41,Okawville,IL,540,3.799,38.437130,-89.524980
894,5963,OZONA ONE STOP,"I-10, EXIT 372",Ozona                                   ,TX,710,2.98233333,30.695650,-101.097920
895,5965,TRUCK TOWNE,I-29 EXIT 47 & SR-46,Beresford                               ,SD,572,3.159,43.079820,-96.795980
896,5971,WACO TRAVEL CENTER,SR-19,Perry,FL,20,3.699,30.117140,-83.581590
897,5979,TA LAFAYETTE TRAVEL CENTER,"I-10 & SR-182, EXIT 101",Lafayette,LA,600,3.134,30.233020,-92.032700
898,5980,THRIFT MART TRUCK PLAZA,"I-85/US-460, EXIT 63A & US-1/US-460 BUS",Petersburg,VA,180,3.199,37.226500,-77.410680
899,5990,360 TRUCK STOP,US-360,Amelia Court House,VA,180,3.599,37.358380,-77.958750
900,5996,Fast Stop Travel Centers #1134,"I-80/US-30, EXIT 99 & US-191/SR-373",Rock Springs,WY,827,3.499,41.587830,-109.225310
901,5999,PILOT TRAVEL STOP #492,"I-30, EXIT 78 & SR-7",Arkadelphia,AR,635,3.559,34.114860,-93.027930
902,5999,PILOT TRAVEL CENTER #492,"I-30, EXIT 78 & SR-7",Arkadelphia,AR,635,3.499,34.114860,-93.027930
903,6001,ALLSUPS #2392,US-70 & US-285,Roswell,NM,700,3.199,33.394260,-104.525800
904,6009,CASEYS #2652,US-65 & US-36,Chillicothe,MO,400,3.289,39.787510,-93.553420
905,6010,SEGOVIA TRUCK STOP,"I-10, EXIT 465",Junction,TX,739,2.999,30.435020,-99.712950
906,6018,TA BLOOMINGTON TRAVEL CENTER,"I-55, I-74 & I-39 , EXIT 160",Bloomington,IL,280,3.619,40.480220,-89.028490
907,6018,TA BLOOMINGTON TRAVEL CENTER,"I-55, I-74 & I-39 , EXIT 160",Bloomington,IL,280,3.649,40.480220,-89.028490
908,6018,TA BLOOMINGTON TRAVEL CENTER,"I-55, I-74 & I-39 , EXIT 160",Bloomington,IL,280,3.599,40.480220,-89.028490
909,6018,TA BLOOMINGTON TRAVEL CENTER,"I-55, I-74 & I-39 , EXIT 160",Bloomington,IL,280,3.449,40.480220,-89.028490
910,6018,TA BLOOMINGTON TRAVEL CENTER,"I-55, I-74 & I-39 , EXIT 160",Bloomington,IL,280,3.539,40.480220,-89.028490
911,6033,EMERY'S,US-54,Deerfield,MO,277,3.349,37.841120,-94.506770
912,6037,CRYSTAL OIL,"I-129/US-20/US-75,  EXIT 2",South Sioux City,NE,527,3.549,42.448820,-96.479490
913,6041,COCKERHAM FUEL CENTER #4,"I-77, EXIT 14 & US-58/US-221",Hillsville,VA,185,3.28233333,36.763680,-80.729300
914,6047,FAST LANE #26,US-61,Eolia,MO,494,3.099,39.214940,-91.007360
915,6051,CIRCLE K #2709846,"I-25, EXIT 240",Longmont,CO,800,3.05733333,40.156900,-104.978710
916,6057,PILOT TRAVEL CENTER #903,"I-70/US-40, EXIT 252",Salina,KS,523,3.759,38.875990,-97.616950
917,6057,PILOT TRAVEL CENTERS #903,"I-70/US-40, EXIT 252",Salina,KS,523,3.779,38.875990,-97.616950
918,6058,MOTOR INN AUTO TRUCK STOP,I-75 EXIT 110,Mendon,OH,370,3.199,40.673130,-84.518640
919,6068,AYERCO #24,US-61 & CR MM,Hannibal,MO,494,3.099,39.709270,-91.391030
920,6082,Palmetto Truck Plaza,US-27/SR-25 & SR-826,Hialeah,FL,95,3.399,25.810520,-80.264210
921,6083,BP,"I-35, EXIT 33",Holt                                    ,MO,400,3.049,39.457460,-94.322280
922,6087,BREAK TIME #3173,US-54 & CR-HH,Fulton,MO,310,3.299,38.855230,-91.970700
923,6093,ONE9 #901,"I-80 & US-183, EXIT 257",Elm Creek,NE,330,2.96566666,40.686820,-99.380090
924,6096,Waverly Travel Center,US-23,Waverly                                 ,OH,315,3.41566666,39.128590,-82.983000
925,6097,SAPP BROS TRAVEL CENTER,"I-80, EXIT 263",Elm Creek,NE,330,3.18733333,40.676160,-99.260080
926,6106,TA HUNTINGTON,"I-84, EXIT 353",Huntington,OR,982,3.639,44.475570,-117.342620
927,6111,HAWGS EXXON,US-167/SR-25,Batesville                              ,AR,418,3.359,35.740050,-91.642430
928,6150,CIRCLE K #2723707,"I-81,  EXIT 150",Troutville,VA,65,3.06566666,37.458800,-79.835080
929,6154,TA MOBILE TRAVEL CENTER,"I-10,  EXIT 4",Grand Bay,AL,715,3.13566666,30.495410,-88.339660
930,6164,PILOT TRAVEL CENTER #268,"I-80/US-6, EXIT 284",Walcott,IA,270,3.859,41.617300,-90.787450
931,6164,PILOT TRAVEL CENTERS #268,"I-80/US-6, EXIT 284",Walcott,IA,270,3.88566666,41.617300,-90.787450
932,6165,TEMP STOP #117,I-70 & GRAIN VALLEY RD EXIT 24,Grain Valley,MO,400,2.959,39.021850,-94.202150
933,6167,PILOT TRAVEL CENTERS #167,US-71,Nevada,MO,277,3.49566666,37.890660,-94.343120
934,6172,SPEEDWAY #2319,"I-96, EXIT 77",Portland,MI,431,3.699,42.860090,-84.890280
935,6172,SPEEDWAY #2319,"I-96, EXIT 77",Portland,MI,431,3.549,42.860090,-84.890280
936,6173,PILOT TRAVEL CENTERS #21,"I-94, EXIT 167",Dexter,MI,325,3.659,42.298820,-83.872520
937,6173,PILOT TRAVEL CENTERS #21,"I-94, EXIT 167",Dexter,MI,325,3.599,42.298820,-83.872520
938,6173,PILOT TRAVEL CENTERS #21,"I-94, EXIT 167",Dexter,MI,325,3.579,42.298820,-83.872520
939,6173,PILOT TRAVEL CENTERS #21,"I-94, EXIT 167",Dexter,MI,325,3.649,42.298820,-83.872520
940,6175,ONVO TRAVEL PLAZA - MIFFLINTOWN,US-322/US-22 & SR-35,Mifflintown,PA,138,3.479,40.570570,-77.394590
941,6179,HENDERSON TRAVEL PLAZA,"I-10, EXIT 115 & SR-347",Breaux Bridge                           ,LA,690,3.38566666,30.277990,-91.888920
942,6180,Circle #4703923,"I-24, EXIT 180B & US-27",Chattanooga,TN,285,2.78566666,35.018880,-85.294430
943,6182,Exxon,"I-20, EXIT 205 & SR-46",Heflin,AL,587,3.01566666,33.645620,-85.638010
944,6188,SIGNAL FOOD STORE #112,US-65 & SR-J,Ozark,MO,535,2.999,36.498860,-92.336980
945,6198,DAVIS TRAVEL CENTER #102,"I-95/US-301, EXIT 33 & SR-602",Stony Creek,VA,180,3.06566666,36.975560,-77.392410
946,6200,KWIK FILL #388,"I-80, EXIT 29 & SR-8",Harrisville,PA,165,3.404,41.201540,-79.980140
947,6206,PETRO PORTAGE,"I-90 & I-94, EXIT 108-A",Portage,WI,420,3.80733333,42.246710,-85.555710
948,6212,MR FUEL,"I-55, EXIT 180",Pevely,MO,540,3.01566666,38.283910,-90.403220
949,6214,PIONEER Travel Plaza,"I-41, EXIT 60 & SR-145",Richfield,WI,444,3.21566666,43.279080,-88.191370
950,6215,FUEL HUB,"I-87, EXIT 21B",West Coxsackie,NY,12,3.599,42.389010,-73.826660
951,6218,LOVES TRAVEL STOP #215,"I-40, EXIT 16 & US-40 BUS/US-66",Gallup,NM,580,3.43733333,35.501270,-108.834980
952,6219,SCHATZ CROSSROADS,US-2 /US-52,Minot,ND,452,3.549,48.208160,-101.302200
953,6221,LOVES TRAVEL STOP #214,I-10 EXIT 37,El Paso,TX,640,3.07566666,31.670950,-106.250170
954,6222,QUIKTRIP #236,"I-29/US-71, EXIT 18 & SR-92",Platte City,MO,400,2.999,39.367460,-94.784510
955,6227,MARLOWS FUEL CENTER,"I-20, EXIT 479",Dallas                                  ,TX,630,3.24066666,32.642840,-96.829530
956,6229,FUEL MART #764,"I-70, EXIT 66 & SR- 54",South Vienna                            ,OH,315,3.129,39.928390,-83.612280
957,6232,OASIS TRUCK STOP,"I-44 & SR-133, MM 145",Richland,MO,416,3.324,37.769250,-92.407120
958,6242,TA FORISTELL TRAVEL CENTER,"I-70, EXIT 203",Foristell,MO,540,3.019,38.817230,-90.957760
959,6243,GARDEN INN TRAVEL PLAZA,US-60/US-63,Cabool,MO,535,3.299,37.111490,-92.084490
960,6251,BREAUX BRIDGE VALERO #1408,"I-10 & SR-347, EXIT 115",Breaux Bridge,LA,730,3.499,30.277990,-91.888920
961,6252,PILOT TRAVEL CENTERS #12,I-80 & I-90 EXIT 71,Perrysburg,OH,550,3.759,41.523470,-83.457010
962,6258,CASEYS #6342,"I-29, EXIT 144 & US-169",Saint Joseph,MO,400,3.169,39.766250,-94.848130
963,6271,TA DENTON TRAVEL CENTER,"I-35, EXIT 471 & US-77",Denton,TX,630,3.254,44.572370,-123.289820
964,6275,TA SEATTLE EAST TRAVEL CENTER,"I-90, EXIT 34",North Bend,WA,962,3.959,47.466960,-121.722570
965,6275,TA SEATTLE EAST TRAVEL CENTER,"I-90, EXIT 34",North Bend,WA,962,3.899,47.466960,-121.722570
966,6275,TA SEATTLE EAST TRAVEL CENTER,"I-90, EXIT 34",North Bend,WA,962,3.859,47.466960,-121.722570
967,6284,7-ELEVEN #40513,I-90/80-IN TOLL RD MM 22W,Portage,IN,365,3.999,41.580190,-87.173220
968,6286,APPLE MARKET #526,"I-64, EXIT 94",Winchester,KY,410,2.91566666,38.012430,-84.213060
969,6290,FUEL KING NAPOLEON TRAVEL CENTER,"US-6/US-24/SR/CR-3, EXIT 41",Napoleon,OH,550,3.439,41.413170,-84.110730
970,6293,PETRO STOPPING CENTER #313,"I-40, EXIT 79",Milan,NM,580,3.57066666,35.178360,-107.900600
971,6296,GRAY TRUCK STOP,US-71/US-136,Maryville,MO,400,3.26566666,40.345030,-94.856310
972,6299,HWY 34 TRUCKSTOP,"US-34, EXIT 258",West Burlington                         ,IA,345,3.374,41.006660,-91.965800
973,6305,I-95 Fuel Stop,"I-95, EXIT 126 & US-17/US-1",Fredericksburg,VA,180,3.264,38.326480,-77.466920
974,6307,QUIKTRIP #608,"I-70, MID RIVERS MALL",Saint Peters,MO,540,2.904,38.797120,-90.620430
975,6308,Pilot Travel Centers #354,"I-64, EXIT 28",Simpsonville,KY,415,3.759,38.207010,-85.342570
976,6309,WINNERS CIRCLE #1,"I-30 & US-270, EXIT 98A",Malvern,AR,695,3.35233333,34.465920,-92.914100
977,6310,CIRCLE K #2707515,US-27/SR-25 & US-98/US-700/SR-700/SR-66,Sebring,FL,140,3.389,27.489850,-81.483170
978,6315,AYERCO #25,US-24,Taylor,MO,494,3.01566666,39.928620,-91.446170
979,6318,Chisholm Corner #15,"I-35, EXIT 72 & US-19",Pauls Valley                            ,OK,569,3.38733333,34.743350,-97.266950
980,6326,KANZA TRAVEL PLAZA,"I-35, EXIT 231 AND US-177",Braman,OK,500,3.02733333,36.925450,-97.334500
981,6327,PETRO STOPPING CENTER #312,"I-40 & I-75, EXIT 369",Knoxville,TN,405,3.42566666,35.880610,-84.232580
982,6330,TA EDINBURG TRAVEL CENTER,I-69C/US-281 & FM-2812,Edinburg,TX,639,3.01066666,26.384980,-98.139990
983,6334,231 PLAZA AND TRUCK STOP,US-231/SR-75 & SR-20,Youngstown,FL,20,3.494,30.435350,-85.386660
984,6341,TA RAWLINS TRAVEL CENTER,"I-80, EXIT 214",Rawlins,WY,795,3.72233333,41.788310,-107.237720
985,6346,SPEEDWAY #4710,US-71/SR-60,Windom,MN,425,3.299,43.823660,-95.212700
986,6351,FLYING J TRAVEL PLAZA #608,"I-10, EXIT 1",Ehrenberg,AZ,930,3.959,33.602990,-114.523570
987,6356,CIRCLE K #2721536,ST 6 EAST,Batesville,MS,435,3.24066666,34.328520,-89.801450
988,6370,TA ROCKWALL TRAVEL CENTER,"I-30/US-67, EXIT 68 & SR-205",Rockwall,TX,630,3.13733333,32.930970,-96.460340
989,6374,TA ELGIN WEST TRAVEL CENTER,I-90 &  US-20,Hampshire,IL,290,3.459,42.065270,-88.416420
990,6374,TA ELGIN WEST TRAVEL CENTER,I-90 &  US-20,Hampshire,IL,290,3.539,42.065270,-88.416420
991,6374,TA ELGIN WEST TRAVEL CENTER,I-90 &  US-20,Hampshire,IL,290,3.599,42.065270,-88.416420
992,6374,TA ELGIN WEST TRAVEL CENTER,I-90 &  US-20,Hampshire,IL,290,3.499,42.065270,-88.416420
993,6374,TA ELGIN WEST TRAVEL CENTER,I-90 &  US-20,Hampshire,IL,290,3.469,42.065270,-88.416420
994,6387,FLYING J FRANCHISE #966,"I-80, EXIT 229",Battle Mountain,NV,966,3.79233333,40.640410,-116.932390
995,6391,TOOT N TOTUM #106,US-287,Dumas,TX,585,3.00566666,35.809910,-101.964280
996,6393,PILOT TRAVEL CENTER #478,"I-64, EXIT 92",Leavenworth                             ,IN,415,3.959,38.239530,-86.366030
997,6393,PILOT TRAVEL CENTERS #478,"I-64, EXIT 92",Leavenworth                             ,IN,415,3.959,38.239530,-86.366030
998,6401,CIRCLE K #2723457,"I-10, EXIT 34-B",Gulfport,MS,715,2.989,30.432760,-89.093070
999,6434,AMPRIDE ALL ROUND TRUCK STOP,US-20,Fort Dodge,IA,343,3.299,42.444950,-94.177010
1000,6441,GRAND OIL,"I-75, EXIT 41 & SR-80",London                                  ,KY,410,3.499,37.117600,-84.051090
1001,6442,CLARK OIL #49,US-84,Laurel,MS,620,2.999,31.684980,-89.133000
1002,6448,CIRCLE K #2723392,"I-59, EXIT 97 & US-84",Laurel,MS,620,2.95233333,31.700140,-89.117550
1003,6462,ARCO #471770,US-281 & SR-5,Dunseith,ND,452,3.499,48.805770,-100.061120
1004,6468,TA SAYRE TRAVEL CENTER,"I-40 & CEMETARY RD, EXIT 26",Sayre,OK,483,3.064,35.336380,-99.595680
1005,6480,FLYING J #934,"I-84, EXIT 265",La Grande,OR,982,3.53566666,45.244990,-118.017640
1006,6492,FLICKS,US-49,Richland,MS,760,2.999,32.231000,-90.161420
1007,6496,SPEEDY EXPRESS #38,"I-35, EXIT 305",Mathis,TX,625,3.199,27.982640,-97.681300
1008,6502,SQUAW CREEK TRAVEL PLAZA,"I-29, EXIT 79 & US-159",Forest City,MO,400,3.339,40.071200,-95.196350
1009,6517,HARDYS #5,"I-80, EXIT 4   4",Wendover,UT,835,3.499,40.742800,-113.976900
1010,6518,TOWN PUMP FOOD STORE #310,"I-15, EXIT 164",Boulder,MT,816,3.559,46.244270,-112.123520
1011,6526,TULIP CITY TRUCK STOP,"I-196 & SR-40, EXIT 49",Holland,MI,344,3.739,42.789370,-86.109660
1012,6527,ZIP TRIP #50,"I-90, EXIT 426",Park City,MT,780,3.584,45.633980,-108.919540
1013,6547,FLYING J TRAVEL PLAZA #762,"I-90, EXIT 126 & SR-59",Gillette,WY,836,3.899,44.293190,-105.504510
1014,6562,PILOT #1323,"I-29, EXIT 35                 ",Faucett                                 ,MO,400,3.27233333,39.596370,-94.788640
1015,6563,Road Ranger #282,"I-35, EXIT 500",Gainesville,TX,630,3.17566666,33.653330,-97.155640
1016,6564,FLYING J FRANCHISE #970,US-395,Pasco                                   ,WA,925,4.599,46.236960,-119.130780
